id,name,address,latitude,longitude,website,rating,user_ratings,summary,types,opening_hours,phone
ChIJ3assUnhFrjsRx4a-FqvNnOk,Primary Health Centre - M G Palya,"mg palya, P9HQ+J22, Ramnagar, Karnataka 562109, India",12.7290172,77.3875294,,4.8,4,,"hospital, health, point_of_interest, establishment",Opening hours not available,
ChIJZdyfKEZFrjsRGqzWvIJEUwE,Hospital,"M9XX+93F, Gollahalli, Karnataka 562109, India",12.6984458,77.3976667,,2.5,2,,"hospital, health, point_of_interest, establishment",Opening hours not available,
ChIJObNFBSZFrjsR_YKpm4B8FEE,"Govt. Hospital Gollahalli, Karnataka 562112","Gollahalli, Karnataka 562112, India",12.6897709,77.3984704,,,0,,"hospital, health, point_of_interest, establishment",Opening hours not available,
ChIJrf4msoVFrjsRyHhh06mA_RM,Govt Hospital Maruthipuara,"P9RP+3GV namadhari seed, Ramanagara, Karnataka 562109, India",12.7402419,77.3862906,,,0,,"hospital, health, point_of_interest, establishment",Opening hours not available,
ChIJXewNRXhFrjsRz3bUaSJpCaQ,ಸರ್ಕಾರಿ ಆಸ್ಪತ್ರೆ,"P9HQ+R45, Chikkakuntanahalli, Karnataka 562109, India",12.729513,77.3878459,,,0,,"hospital, health, point_of_interest, establishment",Opening hours not available,
ChIJAQAAAEtFrjsRyC_wYwnQokk,Pramary Health Centre Dombaradoddi,"M9QX+W95, Gollahalli, Karnataka 562112, India",12.6897709,77.3984704,,5,1,,"hospital, health, point_of_interest, establishment",Opening hours not available,
ChIJe07wfDZbrjsResbyGs7BDcM,Panchamukhi Pharma,"I phase, Plot No 94 & 97, KIADB Industrial Area, Harohalli, Bengaluru, Karnataka 562112, India",12.683645,77.4431043,,4.7,3,,"hospital, health, point_of_interest, establishment",Opening hours not available,094481 40238
ChIJ60McUQBbrjsRAVYwhvH-pyo,Sanjeevini Clinic & Diagnostics,"Tq, MFM8+2PH, Bidadi Main Road, Harohalli, Kanakapura, Karnataka 562112, India",12.6825625,77.4668125,,4.5,33,,"hospital, health, point_of_interest, establishment",Open now,
ChIJZctG2TtbrjsRp-6bU7UWkMs,Manasa Multy Speciality Hospital HAROHALLI,"MFG6+HP6, Ramanagara, Karnataka 562112, India",12.676421,77.461767,,4.8,5,,"hospital, health, point_of_interest, establishment",Opening hours not available,
ChIJTXIbfldbrjsRJibWhoavL_0,Dr Praneshayush life care centre poly clinic,"MFH8+HRR, Harohalli, Karnataka 562112, India",12.6789862,77.4670243,,3.2,5,,"hospital, health, point_of_interest, establishment",Opening hours not available,
ChIJa7v5tOJbrjsRzbxjTfXXfbo,"Dr. Jeevankumar Murali, Treated 4K+ Patients | Best General Physician | General Physician Near Me | Best Diabetes Doctor","CDSIMER Harohalli Deverakaggalahalli, KanakapuraRoad, Dt, Ramanagara, Karnataka 562112, India",12.661,77.4472,https://www.apollo247.com/doctors/dr-Jeevankumar-Murali-81817f14-b0ec-4b6e-bb0d-464fcaee5ac9,,0,,"hospital, doctor, health, point_of_interest, establishment",Open now,080 4696 1837
ChIJKQDvAwBbrjsRt6MvcVYerj8,CDSIMER HOSPITAL,"MC6X+6RP, Kanakapura Main Rd, Kanakapura, Karnataka 562112, India",12.6605254,77.4495635,,3.7,23,,"hospital, health, point_of_interest, establishment",Opening hours not available,
ChIJK5GY0atcrjsRBhYeMpwN2ZI,Community Health Centre - Harohalli,"Kanakapura Main Rd, Harohalli, Karnataka 562112, India",12.6854668,77.4734959,,3.6,23,,"hospital, health, point_of_interest, establishment",Opening hours not available,
ChIJHYaMCEBdrjsRSOntBfluJ8Y,Goduru & chikkannanavalase Bus Stop,"goduru harohalli to anekal mian rodu, kanakapura, Harohalli, Karnataka 562112, India",12.6815831,77.4731876,,4,2,,"hospital, health, point_of_interest, establishment",Opening hours not available,
ChIJF9K-eQBbrjsRQzgbgUqlwvw,P block (psychiatry block),"MC5X+QJ3, Bannikuppe, Karnataka 562112, India",12.6595632,77.4490959,,,0,,"hospital, health, point_of_interest, establishment",Opening hours not available,
ChIJHZFfg7xbrjsRh99_zd8mNQo,Sri Sai Sanjeevini Poly Clinic,"beside Med plus, near RHS School, beside Med plus, Harohalli, Karnataka 562112, India",12.6818742,77.4699008,https://book-appointment.healthplix.com/dr-basavaraj-family-physician--harohalli-bangalore,5,7,,"hospital, health, point_of_interest, establishment",Open now,
ChIJG5V_7R5drjsRgGlBiJSm0TM,SURYODAYA HEALTH CENTRE AND DIAGNOSTICS WITH MEDICAL & GENERAL STORES,"KOTE BEEDI, near MASJID, Harohalli, Kanakapura, Karnataka 562112, India",12.6800063,77.4718461,,5,1,,"hospital, health, point_of_interest, establishment",Open now,
ChIJUXpHUuZbrjsR6ukHMXXRJqg,AYURHEAL KERALA AYURVEDA HOSPITAL,"Ground floor, Shivaprabha building, opp. SBI BANK, chamundeswari layout, Harohalli, Karnataka 562112, India",12.6823654,77.470033,https://www.ayurheal.one/,4.7,14,,"hospital, health, point_of_interest, establishment",Open now,
ChIJl08dskRdrjsRaXQKtCPzSmA,Ayur piles clinic.,"Kanakapura Main Rd, Harohalli, Karnataka 562112, India",12.6833253,77.4707507,,4.9,90,,"hospital, health, point_of_interest, establishment",Open now,080502 05004
ChIJI0GEdahcrjsR5DUUaPefC5Q,NAYAK HOSPITAL,"MFHC+MPR, Harohalli, Karnataka 562112, India",12.6792251,77.4717797,,5,3,,"hospital, health, point_of_interest, establishment",Opening hours not available,
ChIJN5DuYQBdrjsRfiSaSPlil9s,Pradanamantri Bharatiya Jan Aushadhi Kendra Harohalli,"MFHC+HJJ, Road, Harohalli, Bengaluru, Karnataka 562112, India",12.6789584,77.4715073,,,0,,"hospital, health, point_of_interest, establishment",Open now,
ChIJY0S-yGhDrjsRhF_mxvSe9k4,Nayak Hospital,"PF9M+C9C, Ramanagara, Karnataka 562109, India",12.7185561,77.4833798,,,0,,"hospital, health, point_of_interest, establishment",Opening hours not available,
ChIJi5rQG5xbrjsRS4Cr5shIa6o,Tripura medicals and general stores,"Siddapura Bidadi Rd, opp. to urban co-oparative bank, Harohalli, Karnataka 562112, India",12.6801906,77.4690028,,,0,,"hospital, health, point_of_interest, establishment",Open now,094480 54547
ChIJiXhUq2pdrjsRckU4r91ijfA,Godur Hospital,"godur Hospital to anekal main rodu kanakapura, MGCQ+8J6, Harohalli, Karnataka 562112, India",12.6707758,77.5390259,,5,2,,"hospital, point_of_interest, health, establishment",Opening hours not available,
ChIJXzdCCEBdrjsRicfBXe-ScN0,ಗೋದೂರು ಗೇಟ್ ಬಸ್ ನಿಲ್ದಾಣ ಮತ್ತು ಸಾರ್ವಜನಿ Hospital ಗೋದೂರು,"MGCQ+QM6, ಕನಕಪುರ, Godur, Chikkanavalase, Karnataka 562121, India",12.6719048,77.5391282,,5,3,,"hospital, point_of_interest, health, establishment",Opening hours not available,
ChIJT4oHyDxorjsR9i9KsCDKzqc,Sharada Chikistalaya,"PHCF+RJH, Shivanahalli, Karnataka 560083, India",12.7220512,77.5741206,,5,3,,"hospital, health, point_of_interest, establishment",Opening hours not available,
ChIJWURzMvhprjsRg0M1xYfLul0,Govt Ayurvedic Clinic,"PHMF+X6M, Bengaluru, Karnataka 560083, India",12.7352553,77.5731369,,,0,,"hospital, health, point_of_interest, establishment",Opening hours not available,
ChIJx8yAS8RorjsRqCDAdS90jNk,Indalavadi Govt Hospital,"PJHQ+8JW, Indlawadi, Karnataka 562106, India",12.7283633,77.6390891,,4.5,4,,"hospital, health, point_of_interest, establishment",Opening hours not available,
ChIJ61RCao5vrjsRXfQ72wFeQCc,Arogyadhama Primary Health Center,"Bangalor, PMHF+PWJ, Taluk, Honnakasapura Village, Anekal, Honnakalasapura, Karnataka 562106, India",12.7293422,77.6747745,,4,6,,"hospital, health, point_of_interest, establishment",Closed,
ChIJlYQiawBvrjsR1o1EyU55Ipw,POOJA POLY CLINIC,"PMJC+R84, Indlawadi Cross, Suragajakkanahalli, Karnataka 562106, India",12.7320035,77.6708356,,5,1,,"hospital, health, point_of_interest, establishment",Open now,
ChIJycwunjxvrjsRqXJi45-mHS8,SHRI RUDRAMUNEESHWARA MEDICALS & GENERAL STORES,"#shop No. 4, Huchhappa Building, Ground floor,, Bannerugatta Main Road, Indulavadi Cross, Anekal, Bengaluru, Suragajakkanahalli, Karnataka 562106, India",12.7321152,77.6708355,,,0,,"drugstore, hospital, health, store, point_of_interest, establishment",Open now,097388 57044
ChIJw9vODnlvrjsRLhFYs5LTiZY,Government Hospital,"PM5W+JM7 GOVERNMENT HOSPITAL-1, Thali Rd, Weaver Colony, Anekal, Karnataka 562106, India",12.7090444,77.6955742,,3.6,67,,"hospital, health, point_of_interest, establishment",Closed,
ChIJiWDsiKFvrjsRfgtNRslUBtM,Aditi Hospital Anekal,"Kaval Hosahalli, Anekal, Karnataka 562107, India",12.7260316,77.7049037,,4.2,203,,"hospital, health, point_of_interest, establishment",Open now,
ChIJ42KoWYJvrjsRX1RCWZQRgjA,Ganga Speciality Hospital.,"Ganga Specality Hospital, Bayasabhi Layout, KSRTC Colony, Anekal, Karnataka 562106, India",12.7096352,77.7014021,,3.6,73,,"hospital, health, point_of_interest, establishment",Open now,
ChIJ0zatfJ5vrjsRSv4FYNfals8,Vijaya Nursing Home,"Advaitha diagnostics, Vijaya Nursing Home, Chandapura - Anekal Rd, Vinayaka Nagar, Bengaluru, Anekal, Karnataka 562106, India",12.7189576,77.7018534,,3.1,60,,"hospital, health, point_of_interest, establishment",Open now,
ChIJ39ilhYJvrjsRcxbfH5rNu1k,Raghu Child Care Nursing Home,"PP62+32C, Bayasabhi Layout, KSRTC Colony, Anekal, Karnataka 562106, India",12.7101923,77.7000084,,3.9,31,,"hospital, health, point_of_interest, establishment",Open now,
ChIJ6zQJZnhvrjsRnOyq-8nI6Ew,Sri Srinivasa Hospital,"Ram, Temple Rd, near Ghandhi square, Bayasabhi Layout, KSRTC Colony, Anekal, Karnataka 562106, India",12.7094423,77.6983655,,4.4,23,,"hospital, health, point_of_interest, establishment",Open now,098860 59491
ChIJIyGLcEJvrjsREeo9VZ2OVAg,ANEKAL PARAMPARA PUTTUR KATTU & Nallampatti Kattu,"BUS STAND, near Aishwarya Bar ( Karnataka Bar) Street, opposite ANEKAL, Vinayaka Nagar, Anekal, Karnataka 562106, India",12.7098748,77.6970488,,5,231,,"hospital, health, point_of_interest, establishment",Closed,097380 28870
ChIJHy7-KitvrjsREtG_XzYMeH4,Veterinary Hospital Anekal,"near Vetanari Hospital, Bayasabhi Layout, KSRTC Colony, Anekal, Bengaluru, Karnataka 562106, India",12.7084392,77.6992634,,3.7,10,,"hospital, health, point_of_interest, establishment",Open now,
ChIJrwFQ93hvrjsRw13jn5ubndg,Swadeshi Ayurveda Bhandara,"Weaver Colony, Anekal, Karnataka 562106, India",12.7077074,77.6967392,,4.8,5,,"hospital, health, point_of_interest, establishment",Open now,095909 59074
ChIJM91-hYJvrjsRepyd8A9mEmQ,ರಘು ಸ್ಪೆಷಾಲಿಟಿ ಆಸ್ಪತ್ರೆ,"PP62+32X, N R, Bayasabhi Layout, KSRTC Colony, Anekal, Karnataka 562106, India",12.7102338,77.700118,,3.9,9,,"hospital, health, point_of_interest, establishment",Opening hours not available,
ChIJ2wf5EnlvrjsRfaLclsX9n00,Anekal TH,"PM5W+F47, Weaver Colony, Anekal, Karnataka 562106, India",12.7086706,77.6953003,,2,2,,"hospital, health, point_of_interest, establishment",Opening hours not available,
ChIJbaAEp3lvrjsRxTFZLlm0dmY,Vignesh Medicals and General Stores,"Muniverappa colony,, Opposite to government Hospital,, Taluk office Road, Anekal, Vinayaka Nagar, Bangalore, Anekal, Karnataka 562106, India",12.7096706,77.6956281,,5,6,,"hospital, pharmacy, wholesaler, health, store, point_of_interest, establishment",Open now,087921 47137
ChIJwWDfnIJvrjsROmfaOyRMDgA,Akshaya Physiotherapy And Pain Relief Clinic,"Bayasabhi Layout, KSRTC Colony, Chandapura, to, Anekal - Hosur Rd, Bayasabhi Layout, Hosur Road, Anekal, Karnataka 562106, India",12.7107225,77.6995495,,4.8,5,,"hospital, health, point_of_interest, establishment",Open now,095382 97765
ChIJV896_3hvrjsRRTHeywWTXmY,Sri Raghavendra Clinic,"PM5W+QPR, Thali Rd, Weaver Colony, Anekal, Karnataka 562106, India",12.709498,77.6967781,,5,1,,"hospital, health, point_of_interest, establishment",Open now,080 2785 9284
ChIJkdds7XhvrjsRykW8HSFErJs,Srinivasa Nursing Home,"Opp., PM5X+Q8P, Rama Temple Rd, Bayasabhi Layout, New Tippasandra, Bengaluru, Anekal, Karnataka 560075, India",12.7094596,77.6983341,,4,2,,"hospital, health, point_of_interest, establishment",Open now,
ChIJC5n1HZNvrjsRVOmJj2YUlaE,Samiksha med pharma,"Thimmarayaswamy Temple Rd, arch, Weaver Colony, Hosur, Anekal, Karnataka 562106, India",12.7066798,77.7000592,,,0,,"hospital, health, point_of_interest, establishment",Opening hours not available,
ChIJYVMQR-ZvrjsRPnwIdSsxodY,Ayurvedic government dispensary,"PM5V+W8V, Thali Rd, Weaver Colony, Anekal, Karnataka 562106, India",12.7098643,77.6933062,,,0,,"hospital, point_of_interest, health, establishment",Opening hours not available,
ChIJX_MiMABlrjsRaJ2s3qBe_CU,Roja Clinic,"MPWP+974, GATE, near SAMANDURU, Submangala, Karnataka 562106, India",12.6959834,77.7355919,,,0,,"hospital, point_of_interest, health, establishment",Opening hours not available,
ChIJz6mNvbdvrjsRYZtaBTpqoek,Thattanahalli village Health Center,"PPQG+J3F, Thattanahalli, Karnataka 562107, India",12.7390684,77.725178,,5,1,,"hospital, health, point_of_interest, establishment",Opening hours not available,
ChIJoRlsB1xvrjsREXxgW6i7ZE8,Cosmos wellness zone,"#7/195, chiguru, behind court, Mariyappa Layout, Vinayaka Nagar, Anekal, Anekal Rural, Karnataka 562106, India",12.7146286,77.7016377,,5,1,,"hospital, health, point_of_interest, establishment",Open now,093801 10271
ChIJf1XBPk5xrjsRP3i1JjoTa2o,Govt Primary Health Centre,"PQGH+CHH, Kothagondapalli, Tamil Nadu 635126, India",12.7260611,77.7789904,,3.1,7,,"hospital, health, point_of_interest, establishment",Opening hours not available,
ChIJoec4qDRxrjsRvRcqfkQ6G94,Balaji Medical,"PQ7P+FX7, Nanjapuram, Tamil Nadu 635126, India",12.7136619,77.7874367,,,0,,"hospital, health, point_of_interest, establishment",Opening hours not available,089732 42244
ChIJjyPnTsx7rjsR0hbmrd4yEiI,HEALTH CARE MEDICALS,"Hosur - Thally Rd, Belagondapalli, Belagondanahalli, Tamil Nadu 635110, India",12.6712907,77.7622962,,,0,,"hospital, health, point_of_interest, establishment",Opening hours not available,094881 54981
ChIJ209SjFl7rjsRm2yycBu3mew,SPV GENEALOGY AND MATRIMONY,"Karnoor, Hosur, Karnoor, Tamil Nadu 635110, India",12.7039229,77.7939992,,,0,,"hospital, health, point_of_interest, establishment",Opening hours not available,
ChIJWQe1T1l7rjsRxb_jwc0jR4c,Abi medical & clinic,"grand cinemas, Near, Hosur - Thally Rd, Karnoor, Hosur, Tamil Nadu 635110, India",12.704203,77.7905797,,5,1,,"hospital, health, point_of_interest, establishment",Open now,099404 41988
ChIJ3woc0MN6rjsR4Nk4Fl2M_5s,Veterinary Dispensary,"MQG7+5R6, Belagondanahalli, Tamil Nadu 635110, India",12.6754155,77.7645134,,,0,,"hospital, health, point_of_interest, establishment",Opening hours not available,
ChIJfwjuWFJ7rjsR1HeUZe130NM,RS BROTHERS PHARMA,"Ground Floor, East Facing, 1/226/2, Anganvadi Street, Nagondapalli, Hosur, Tamil Nadu 635110, India",12.6704266,77.785968,,5,3,,"hospital, health, point_of_interest, establishment",Open now,078456 48645
ChIJmTujnwxxrjsRaXZeabtxENw,Malar Hospital,"182/2C2, Hosur - Denkanikottai Rd, near Mathigiri Circle, Old Mathigiri, Hosur, Tamil Nadu 635110, India",12.6995437,77.8107601,https://www.malarhospitals.com/,4.8,440,,"hospital, point_of_interest, health, establishment",Open now,04344 611 545
ChIJ6a6ZE3BxrjsRuRkLOSMrZXs,Jayam Speciality Clinic,"575/A3-Ring road 5th cross, ESI Ring Rd, Muneeswara Nagar, Hosur, Tamil Nadu 635109, India",12.73025,77.8069154,,4.9,104,,"hospital, point_of_interest, health, establishment",Open now,063807 60071
ChIJJcIaiPN7rjsRXCS1iS_BbKQ,Metro Health,"X road, Kelamangalam Rd, near Mathigiri, Chamundi nagar, Hosur, Tamil Nadu 635110, India",12.6971295,77.8157679,,3.7,27,,"hospital, point_of_interest, health, establishment",Open now,
ChIJEW8mNkRxrjsRAqvuG2xJcPk,Malar Multispeciality Clinic,"No.5 Rajaji Nagar, Near, Dinnur Bus Stop Rd, Dinnur, Navadhi, Hosur, Tamil Nadu 635109, India",12.711723,77.8192769,,4.3,64,,"hospital, pharmacy, child_care_agency, store, point_of_interest, health, establishment",Open now,094897 03344
ChIJqQVNBXN6rjsRTrYtPI78Zwg,Anantha Ashram Hospital,"Mathigiri Road, Mathigiri, Hosur, Tamil Nadu 635109, India",12.6991014,77.8110498,,4,63,,"hospital, point_of_interest, health, establishment",Open now,
ChIJIbgTBW96rjsRDYFduqVxCnk,Government Hospital,"MRR3+HRG, Mathigiri, Hosur, Tamil Nadu 635110, India",12.6914307,77.8045779,,3,4,,"hospital, point_of_interest, health, establishment",Open now,
ChIJTdD3G256rjsRe-Sr_pT1_N8,Fathima Hospital,"MRV4+WV5, Royal Town Main Road, Mathigiri, Hosur, Tamil Nadu 635109, India",12.694761,77.8072427,,4,25,,"hospital, point_of_interest, doctor, health, establishment",Open now,
ChIJYxl8bG1xrjsRMD5MW2ANZEY,RK PolyClinic,"10, 4th Cross Rd, Vignan Nagar, SBM Colony, Anthivadi, TVS Nagar, Hosur, Tamil Nadu 635109, India",12.7197822,77.8093925,,3.7,3,,"hospital, point_of_interest, health, establishment",Open now,
ChIJB5433cNwrjsRoN5ipw_EKqo,NALAM HOMOEO CLINIC & RESEARCH CENTER,"Plot no 25, 2nd cross, Muneeshwar nagar, phase 2, ESI Ring Rd, behind bakeland bakery, Muneeswara Nagar, Hosur, Tamil Nadu 635109, India",12.7277205,77.8087928,,5,91,,"hospital, pharmacy, drugstore, store, point_of_interest, health, establishment",Open now,098438 72260
ChIJ_SCI0jRxrjsRnfZCOVn6Kqg,SURAKSHA MULTISPECIALITY CENTRE,"181/8, GROUND FLOOR, Denkanikotta Rd, next to SELVA VINAYAGAR TEMPLE, opp. DSP OFFICE, Venkateswara Colony, RK NAGAR, Hosur, Tamil Nadu 635109, India",12.7163521,77.8209654,,4.9,44,,"hospital, pharmacy, store, point_of_interest, doctor, health, establishment",Opening hours not available,070947 95795
ChIJg-Hk3rZ7rjsR5Eai0fDtLz0,Restore Health Centre,"1/1, Amman Nagar, Barath Nagar, Hosur, Tamil Nadu 635110, India",12.7029546,77.8134616,,5,4,,"hospital, point_of_interest, health, establishment",Closed,
ChIJmVgbV3ZxrjsRA__6KBJoKec,"Lakshmi nursing home, Hosur","No. 5/646, PRH5+8J3, B1, Ring Road, near Bakeland Bakery, Muneeshwar Nagar Extension, Muneeshwara Nagar, Hosur, Tamil Nadu 635126, India",12.728262,77.8089869,,3.5,2,,"hospital, point_of_interest, health, establishment",Open now,
ChIJZWgCZQBxrjsRo4hy3LTnKzo,Gunam Super speciality Hospital,"A94, 1st Cross St, SBM Colony, Anthivadi, TVS Nagar, Hosur, Tamil Nadu 635110, India",12.7196109,77.8080321,,4,1,,"hospital, point_of_interest, health, establishment",Opening hours not available,
ChIJAQAAJJFwrjsRY8DPC3NOdfU,Shakuntala Memorial Hospital & Research Center,"50/51, Golden Town, Unkal Cross, Hosur, Hosur, SBM Colony, Anthivadi, Hubli, Hosur, Tamil Nadu 580028, India",12.7206806,77.8070751,,,0,,"hospital, point_of_interest, health, establishment",Opening hours not available,0836 222 8271
ChIJPTzt9Qp7rjsRpDBLyi4kLO8,Venkat Medical & Clinic,"PR39+575, navadhi new colony, Navadhi, Hosur, Tamil Nadu 635109, India",12.7028853,77.8182428,,5,1,,"hospital, point_of_interest, health, establishment",Opening hours not available,098433 81584
ChIJyyeY4gN7rjsRXUqSOACrSpo,Shree Sairam Medicals,"Mathigiri, Hosur, Tamil Nadu 635110, India",12.6940546,77.8063975,https://medical-store.in/shrees56,5,4,,"hospital, point_of_interest, health, establishment",Open now,096294 40799
ChIJoXSjnbRFrjsRj3nMKyNYVN0,Govt Hospital,"QC2C+3WH, Ramanagara, Karnataka 562109, India",12.7501938,77.4223595,,4,4,,"hospital, health, point_of_interest, establishment",Closed,
ChIJgxSfnbRFrjsRk6KnwWDw9i0,Primary Health Center - Byramangala,"Sri BS Srinivasmurthy Rd, Industrial Area, Byramangala, Bidadi, Karnataka 562109, India",12.7501913,77.4223602,,1,1,,"hospital, health, point_of_interest, establishment",Open now,
ChIJQZN9CABFrjsRdvLwR3_lDZ4,Cow hospital ದನಗಳ ಆಸ್ಪತ್ರೆ,"PCXH+QFF, Bannigiri, Karnataka 562109, India",12.7488391,77.4286946,,5,2,,"hospital, health, point_of_interest, establishment",Opening hours not available,
ChIJB9Z1putFrjsRPSZh59ghC6w,"Ittamadu primary health centre, Toredoddi","Q95X+283, Heggadagere, Karnataka 562109, India",12.757515,77.3982945,,,0,,"hospital, health, point_of_interest, establishment",Opening hours not available,
ChIJCWz8fLNFrjsRK6du0U_sBxY,Poorna Chandra Medicals And General Store,"PCXC+XRR, Ramanagara, Karnataka 562109, India",12.7499973,77.422024,,5,2,,"hospital, health, point_of_interest, establishment",Opening hours not available,
ChIJ1-ipNABFrjsRw1ZPGduK7R0,Paduvanagare,"Q93M+X4, Aladamaradadoddi, Karnataka 562109, India",12.7548854,77.3829046,,,0,,"hospital, health, point_of_interest, establishment",Opening hours not available,
ChIJh-aifXNErjsR5DhYp0iOkxY,Yogavana Vaidya Sala,"QF47+5P9, Unnamed Road, Kodiyala Karenahalli, Karnataka 562109, India",12.7554132,77.4643619,,3.2,22,,"hospital, point_of_interest, health, establishment",Opening hours not available,
ChIJBaTZiJlDrjsR2xZOQCDuVFc,Sri Sri Cancer Care,"PFWQ+73F, Kanakapura Main Rd, O.B Chudanahalli, Bengaluru, Karnataka 560082, India",12.7456955,77.4876673,https://www.srisricancercare.org/,4.5,2,,"hospital, point_of_interest, health, establishment",Opening hours not available,081476 94710
ChIJgQW3azpFrjsRspFkDOQmP9I,ಯೋಗವನ ವೈದ್ಯ ಬೆಟ್ಟ ಪ್ರಸಾದ ನಿಲಯ,"QF48+82, K.G.Gollarapalya, Karnataka 562109, India",12.7557546,77.4650791,,,0,,"hospital, point_of_interest, health, establishment",Opening hours not available,
ChIJOVusiZlDrjsR2KafOaKR1VI,Samudaya Arogya Kendra - Kaggalipura,"Off, Kanakapura Main Rd, Kaggalipura, Karnataka 560082, India",12.7456628,77.4874677,,,0,,"hospital, point_of_interest, health, establishment",Opening hours not available,
ChIJscN1ncdDrjsRteIo6T6CSGo,pradhan mantri jan aushadhi kendra,"PFWQ+734, Kanakapura Main Rd, Bayanpalya, Bengaluru, Karnataka 560062, India",12.745628,77.4877089,,,0,,"hospital, point_of_interest, health, establishment",Opening hours not available,
ChIJo0w2CBpprjsRPTNvCQoO4zE,Arogyadhama Ayurveda Panchakarma Block,"QJ3F+JM3, J.Bingipura, Karnataka 560105, India",12.7540195,77.624182,https://svyasa.edu.in/,4.9,8,,"hospital, health, point_of_interest, establishment",Closed,
ChIJGS0nCBpprjsRKW3T6DNy5fQ,VYASA Naturopathy Block Surabhi,"QJ3F+JMC, J.Bingipura, Karnataka 560105, India",12.7540535,77.6241451,,4.8,4,,"hospital, health, point_of_interest, establishment",Closed,
ChIJO-ZjpxBprjsRoEsxPDDfCjM,Surabhi naturopathy and ayurveda hospital,"QJ3F+JJC, J.Bingipura, Karnataka 560105, India",12.7540736,77.6240138,,4.7,3,,"hospital, health, point_of_interest, establishment",Closed,
ChIJHxQrIABprjsRMapmBE3UnaA,Arogyadhama,"QJ3F+QV, J.Bingipura, Karnataka 560105, India",12.754702,77.624874,https://svyasa.edu.in/,4,1,,"hospital, health, point_of_interest, establishment",Opening hours not available,
ChIJB7ApQFBprjsRKVPZRLWiokM,Sushrutha Ayurvedic Medical College And Hospital,"Taluk, Bengaluru, Giddenahalli, Karnataka 560105, India",12.7565125,77.6241406,http://sushruthaayurvedicmedicalcollege.com/,4.4,244,,"university, hospital, health, point_of_interest, establishment",Opening hours not available,080 2263 9910
ChIJA6EZrRBprjsRIZ6NoOeSios,S-VYASA AROGYADHAMA PRASHANTI KUTIRAM,"J.Bingipura, Karnataka 560105, India",12.7576871,77.6265913,https://arogyadhama.com/,4.8,632,,"hospital, health, point_of_interest, establishment",Closed,099728 71777
ChIJD41aVKtprjsRIEPmGnjhToA,Government Health Center,"QJ78+PRX, Mahanthalingapura, Karnataka 560105, India",12.7643683,77.6171164,,3.8,5,,"hospital, health, point_of_interest, establishment",Closed,
ChIJB3qoxRBprjsRTLRnhArcWjw,The School Of Yoga & Naturopathic Medicine,"Prashanti Kuteeram, Giddenahalli village, Kalabalu, post, Jigani, J.Bingipura, Karnataka 560105, India",12.7565755,77.6241586,http://www.svyasabnys.com/,4.8,84,,"university, hospital, health, point_of_interest, establishment",Closed,080 2263 9981
ChIJ3SVKMjVprjsRLaNOvDeZAbg,Government Primary Health Centre,"Haragadde SH-87, Banneyugatta Road, Anekal, Haragadde, Karnataka 562106, India",12.764764,77.653352,,3,6,,"hospital, health, point_of_interest, establishment",Closed,
ChIJuV0Cb9tvrjsRItzGn62Czng,Bharath Medical,"Haragaddea, Jigani - Anekal Rd, Bengaluru, Haragadde, Karnataka 560105, India",12.7648269,77.6539771,,,0,,"pharmacy, hospital, health, store, point_of_interest, establishment",Opening hours not available,086602 85049
ChIJFeVXGl1prjsR_s0M-IFsKiQ,Unity Pharma,"QM82+342, Jigani, Haragadde, Bengaluru, Karnataka 560105, India",12.7651499,77.6502806,,,0,,"hospital, pharmacy, health, store, point_of_interest, establishment",Open now,098809 38055
ChIJsWvYq-1vrjsR0vg4EeTBdcg,Dr. Rashmi Sharma Ayurvedic Physician in Bengaluru,"Akshara arogya kendra 1st cross , park road , NOBO Nagar, SH 87, Kammanahalli, Bengaluru, Karnataka 560076, India",12.7604214,77.6555564,https://drrashmisharma82889.getmy.clinic/?utm_source=gmb&utm_medium=web&utm_campaign=tu,5,3,,"hospital, doctor, health, point_of_interest, establishment",Open now,080730 06426
ChIJX4W7-SZvrjsRBqcWuurD52I,Dhanavanthari Medical and General Store,"PMR9+H7F, Jigani - Anekal Rd, Vinayaka Nagar, Anekal, Karnataka 562106, India",12.7414488,77.6681728,,,0,,"hospital, health, point_of_interest, establishment",Opening hours not available,096322 43636
ChIJFWprLN9vrjsRU0PwyE6YcnA,DR. Rajan’s health clinic,"VBHC Vaibhava, near Block 10, Byagadadhenahalli, Karnataka 562106, India",12.7569304,77.7018719,,5,4,,"hospital, health, point_of_interest, establishment",Opening hours not available,
ChIJz56OEl5urjsRFhSf9aGM0GI,Government Hospital,"QP93+3QV, Marsur, Karnataka 562106, India",12.7677448,77.7044209,,2.6,14,,"hospital, health, point_of_interest, establishment",Open now,
ChIJhVfkQCtvrjsRTlNzo0tVipI,Kalyani eye clinic & AYKYA Opticals .ಕಲ್ಯಾಣಿ ಐ ಕ್ಲಿನಿಕ್ ಐಯ್ಕ ಆಪ್ಟಿಕಲ್ಸ್,"1st floor,NearR.k Farm gate, opposite New BIG market, RTO office,Marsur, Chandapura - Anekal Rd, Bengaluru, Byagadadhenahalli, Karnataka 562106, India",12.7618024,77.7020516,,5,80,,"hospital, doctor, health, store, point_of_interest, establishment",Open now,
ChIJH76cNSdxrjsRBN6geV02Ov8,Govt Veternary Hospital,"QP2W+H73, Mayasandra, Karnataka 562107, India",12.7513855,77.7456797,,,0,,"hospital, point_of_interest, health, establishment",Closed,
ChIJ4-mNRZdvrjsRE3RZ5s21OWQ,KARUNYA CLINIC,"BMR COMPLEX, Chandapura - Anekal Rd, Bengaluru, Byagadadhenahalli, Karnataka 562106, India",12.7593242,77.7036239,,,0,,"hospital, point_of_interest, health, establishment",Open now,
ChIJCw9a1qpxrjsRtAhYzz009Vw,Government Hospital,"QQ2Q+98J, Ballur, Hosur, Karnataka 562107, India",12.7509613,77.7882708,,3.3,7,,"hospital, health, point_of_interest, establishment",Opening hours not available,
ChIJQ3cpbItxrjsR8hkJZDYeS2w,Primary Veterinary Hospital Mayasandra,"QP2W+M35, Mayasandra, Karnataka 562107, India",12.7516448,77.7452304,,5,1,,"hospital, health, point_of_interest, establishment",Opening hours not available,
ChIJJ1hSfRxvrjsRcK35yNzAxdE,GOVERNMENT HEALTH CENTER,"PPWG+927, Thattanahalli, Karnataka 562107, India",12.7459183,77.7250589,,4,1,,"hospital, health, point_of_interest, establishment",Opening hours not available,
ChIJKdhRNy5xrjsRi46tFxU7NUA,KGS Health Care Center Ballur,"taluk, near south indian bank, Ballur, Anekal, Attibele, Karnataka 562107, India",12.754578,77.787033,,,0,,"hospital, health, point_of_interest, establishment",Open now,
ChIJBzaOeQRxrjsRmPZY0e6Ua9M,ESI Hospital,"QQ4X+QHH, Mookondapalli, Hosur, Tamil Nadu 635126, India",12.7569462,77.7989782,http://www.esic.nic.in/,3.4,71,,"hospital, health, point_of_interest, establishment",Open now,04344 276 586
ChIJwfiMfLtwrjsRCUgtLW9LED4,Dr Agarwals Eye Hospital,"No 72/3, RS Towers, Bangalore Main Road, opposite Traffic Police Station Road, Sunnambu Jeebi, Hosur, Tamil Nadu 635109, India",12.7407749,77.820508,https://www.dragarwal.com/eye-hospital/hosur/?utm_source=locator&utm_medium=googleplaces,4.8,5654,,"hospital, doctor, health, store, point_of_interest, establishment",Open now,095949 24217
ChIJc93LutxwrjsRric1OwKky-s,Vasan Eye Care - Hosur,"80 Feet Road, Bangalore Bye Pass Road, PRR9+GM, Commercial St, near Dharga Lake, Vaishnavi Nagar, SBM Colony, Anthivadi, Hosur, Tamil Nadu 635109, India",12.7415566,77.8188926,https://vasaneye.com/eye-hospital/hosur/,4.5,687,,"hospital, doctor, health, point_of_interest, establishment",Open now,093609 46125
ChIJwUNotONwrjsRELDWuO0oaSg,BMS Multi Speciality Hospital,"302, near National Petrol Bunk, opp. LAL SIPCOT, Hosur, Tamil Nadu 635126, India",12.7482749,77.8064311,http://www.bmshospitalhosur.com/,4,287,,"hospital, health, point_of_interest, establishment",Open now,04344 278 999
ChIJExoo-m9xrjsRewa-yhAvJ5g,Mithra Leela Children's Hospital,"Plot No-61, opp. to sivaranjini hotel, Maruthi nagar, Sunnambu Jeebi, Dharga, Hosur, Tamil Nadu 635126, India",12.7457151,77.8178519,http://www.mithraleelahospital.com/,3.8,111,,"hospital, health, point_of_interest, establishment",Open now,090879 10999
ChIJhfylIEFxrjsRoYq23jCjZzU,S.S Hospital,"Commercial St, Vaishnavi Nagar, SBM Colony, Anthivadi, Hosur, Tamil Nadu 635109, India",12.7411378,77.8185751,,3,85,,"hospital, health, point_of_interest, establishment",Opening hours not available,
ChIJD3JvZIZxrjsRLTfTEY0_STE,Dr pavi womens health and fertility centre,"100 feet road 100 Feet Road, Hosur - Thally Rd, behind vailankanni school, New ASTC Hudco, SBM Colony, Anthivadi, Hosur, Tamil Nadu 635109, India",12.7343125,77.8160625,http://www.pavihospital.com/,4.9,101,,"hospital, health, point_of_interest, establishment",Open now,096001 20531
ChIJ4__VYFpxrjsR-Mim1YCfld8,Mira Eye Care Center,"Shanti Niketan, H1, 10th Cross, Old Astc Hudco, New ASTC Hudco, SBM Colony, Anthivadi, Hosur, Tamil Nadu 635109, India",12.7365529,77.8152777,http://www.miraeye.in/,4,49,,"hospital, health, point_of_interest, establishment",Open now,095000 31903
ChIJG8ovRR1xrjsRXELMSTTsNXE,Janani Hospital,"1/24 ,Bangalore Main Road, NH 44, Mookondapalli, Hosur, Tamil Nadu 635126, India",12.752063,77.8031236,,4.4,395,,"hospital, doctor, health, point_of_interest, establishment",Open now,097914 46642
ChIJudzgXHNxrjsRorrNqCwWAFU,"ARUN MEDICAL CENTRE - Ortho Specialist, Consultant Physician and diabetologist","Muthoot Finance Building, Shanthi Nagar, opposite to CSI Church, near ICICI BANK, Shanthi Nagar West, Hosur, Tamil Nadu 635109, India",12.7282892,77.8244533,,3.9,40,,"hospital, doctor, health, point_of_interest, establishment",Open now,094436 33340
ChIJv_EbHzxxrjsRTorwKFDYH2M,LOTUS NURSING HOME,"M477, 67th Cross St, near 100 Feet Road, New ASTC Hudco, Hosur, Tamil Nadu 635109, India",12.7328303,77.8130232,,3.8,30,,"hospital, health, point_of_interest, establishment",Open now,093631 66930
ChIJ51bZqDtxrjsRDmeuV3jz_fs,Lions Blood Bank Hosur Sipcot,"PRHF+RG5, Shanthi Nagar West, Hosur, Tamil Nadu 635109, India",12.729546,77.8238899,,3.5,11,,"hospital, health, point_of_interest, establishment",Open now,
ChIJj8THw-JwrjsRpO0T323trKc,Government Primary Health Care,"2/67b, Sipcot Staff Housing Colony, Mookondapalli, Hosur, Tamil Nadu 635126, India",12.7494064,77.8036878,,3.8,12,,"hospital, health, point_of_interest, establishment",Open now,
ChIJywcUYcBwrjsRM2dEbAb_w50,The Chennai Siddha Hospital (Siddha Clinic/Ayurvedic Clinic/Siddha Hospital),"SBC Arcade, Plot No: 122, Thally Main Road, near Chenneys Mahal, New ASTC Hudco, Appavu Nagar, Hosur, Tamil Nadu 635109, India",12.7303957,77.8164197,,4.1,24,,"hospital, health, point_of_interest, establishment",Open now,098945 83187
ChIJrYBAUeJwrjsRZQCAJE89C9s,Santhi hospital & Santhi Jananam Fertility Centre,"SIPCOT, behind SBI, opp. to Lal, Hosur, Tamil Nadu 635126, India",12.748981,77.8057243,http://sjfc.in/?gbp,4.4,320,,"hospital, doctor, health, point_of_interest, establishment",Open now,094423 18732
ChIJeeP4Fy1xrjsRunHvLl1C69w,GOVERNMENT VETERINARY POLYCLINIC-HOSUR,"VETERINARY HOSPITAL CAMPUS, 73, Denkanikotta Rd, SBM Colony, Anthivadi, Hosur, Tamil Nadu 635109, India",12.7369533,77.8227059,,2.9,13,,"pharmacy, veterinary_care, hospital, health, store, point_of_interest, food, establishment",Open now,
ChIJI_ciwulHrjsRJvocpm9yd4Y,BHARATH KEMPANNA HEALTH CARE (Multispeciality Hospital),"Bangalore Mysore Highway Kenchanakuppe, Gate, Bidadi, Karnataka 562109, India",12.7942618,77.3819701,,4.8,216,,"hospital, doctor, health, point_of_interest, establishment",Open now,099991 23358
ChIJQbii4BhGrjsRW1gOC5XFOq4,Bidadi Govt Hospital,"Q9WP+H64, SH17, Gollara Palya, Karnataka 562109, India",12.7963832,77.3855914,,3.5,19,,"hospital, health, point_of_interest, establishment",Opening hours not available,
ChIJybDnXVxHrjsRr1cY87Zdbkg,Sri Puttanna Memorial Hospital,"Jogaradoddi, Byramangala Rd, Bidadi, Karnataka 562109, India",12.7792227,77.4053436,,5,2,,"hospital, health, point_of_interest, establishment",Open now,096321 11262
ChIJKXok-6BIrjsRxrkeXu7mUCI,"Manasa Maternity & Trauma Care bidadi | Best Gynecologist, Fertility, Pediatrician & laparoscopic surgery","Cross, SH17, near Bank Of Baroda, Kenchanakuppe, Bidadi, Karnataka 562109, India",12.7933773,77.3801322,,4.7,69,,"hospital, doctor, health, point_of_interest, establishment",Open now,096200 83840
ChIJMflwIBlGrjsRYDTS3j7woKc,Community Health Center - Bidadi,"Hanumantra, 2nd Cross Rd, Industrial Area, Bidadi, Karnataka 562109, India",12.7963662,77.3846252,,4,1,,"hospital, health, point_of_interest, establishment",Open now,
ChIJb1Uazl1FrjsR-8RN5LlVRA8,M.S .HOSPITAL & DIAGNOSTIC CENTRE,"ABBANAKUPPE,BYRAMANGALA, QCF5+PR6, MAIN ROAD, Bidadi, Abhanakuppe, Karnataka 562109, India",12.7742753,77.4095145,,4,2,,"hospital, health, point_of_interest, establishment",Open now,
ChIJS8cz5HlHrjsRJhH9CoI9s_U,Thara Multi Speciality Hospitals And Medicals,"QCH4+M48, Byramangala Rd, Banandoor, Karnataka 562109, India",12.7791718,77.4053404,,1,1,,"hospital, health, point_of_interest, establishment",Open now,080888 55510
ChIJzZj-XwBBrjsRODDuiBi8yPw,Virupakshipuram Natural Paralysis Medicine,"Tharalu Estate Village, Post, Tharalu, Bengaluru, Karnataka 560082, India",12.7876133,77.5351719,,5,1,,"hospital, health, point_of_interest, establishment",Open now,
ChIJk9IBr3pBrjsR73C6dx5Gy_k,Humanitarian Healthcare Centre,"#20, Milestone, Bannerghatta Village, Bengaluru, Karnataka 560082, India",12.793013,77.5051502,https://airhumanitarianhomes.org/ath-what-we-do.html,3,2,,"hospital, health, point_of_interest, establishment",Opening hours not available,089708 88889
ChIJF9qk1gVDrjsRH4zGJqd8EDo,Dona Paula Clinic,"QGCH+XFM, Unnamed Road, Bengaluru, Mariapura, Karnataka 560082, India",12.7724733,77.5286769,,,0,,"hospital, health, point_of_interest, establishment",Opening hours not available,
ChIJAUAwSSVCrjsRxfvltESqJwE,Dona Paula Clinic,"QGFH+2FF, Mariapura, Karnataka 560082, India",12.772571,77.5286605,,,0,,"hospital, health, point_of_interest, establishment",Opening hours not available,
ChIJZVCijQRBrjsRuV7E6WeBjhg,sri sathya sai naati clinic,"srinivasa bulding, Kanakapura Main Rd, opp. masjid, near muthotfince, Kaggalipura, Bengaluru, Karnataka 560082, India",12.7987244,77.5079542,,,0,,"hospital, health, point_of_interest, establishment",Opening hours not available,
ChIJH3ELVwBBrjsRcADfcx3_vsc,HEALTH CARE PHARMA,"NO 51, near ANSAR MASJID, Kaggalipura, Bengaluru, Karnataka 571417, India",12.7989113,77.5077122,http://www.leelathehouseofbeauty.com/,5,1,,"hospital, health, store, point_of_interest, establishment",Open now,081520 06563
ChIJ79IBr3pBrjsRR6vs2JjIwbU,Ganesh Maruthi Medicals,"#25/1,47th A Cross, Sangam Circle, Jayanagar 8th Block, Near Ganapathi, Temple, Bengaluru, Karnataka 560082, India",12.793013,77.50515,,,0,,"hospital, health, point_of_interest, establishment",Opening hours not available,080 2245 9940
ChIJKVodZVlBrjsRX83luLRNx3o,Medsons clinic,"Kanakapura Main Rd, opp. ansar masjid, near muthoot finance, Kaggalipura, Bengaluru, Karnataka 560082, India",12.7987606,77.5079416,,,0,,"hospital, health, point_of_interest, establishment",Open now,089716 52363
ChIJs7zCeZBBrjsRRXbimLlmyDE,Cadabam's,"QGWH+P47, Gulakamale, Karnataka 560082, India",12.7967841,77.527784,http://www.cadabams.org/,2.6,5,,"hospital, health, point_of_interest, establishment",Closed,096111 94949
ChIJudXEZJpBrjsRPmuAeCskqR8,Adrutha Hospital,"QGXG+4PV, Gulakamale, Karnataka 560083, India",12.7978668,77.5268071,,,0,,"hospital, health, point_of_interest, establishment",Opening hours not available,
ChIJ7dWBCktBrjsR-cJUOCagyhk,AAYURAROGYA HOMEOPATHIC CLINIC,"Next to Cadabams apartments bannerghatta road gulakamale kaggalipura, BANGALAORE, Gulakamale, Karnataka 560082, India",12.7980306,77.5287331,,,0,,"hospital, health, point_of_interest, establishment",Open now,081975 01199
ChIJNWumJPZtrjsR3qWh31b2FFs,VIVAAN CHILD CARE AND POLYCLINIC,"3, Koppa Gate Nisarga Rd, Nisarga Layout, Harapanahalli, Karnataka 560083, India",12.7876425,77.6138825,,4.7,16,,"hospital, doctor, health, point_of_interest, establishment",Open now,070221 65916
ChIJAUFF7kFrrjsRD_-SeyYTv2Q,Bismillah Khabarastan,"QHQV+HPV, Ragihalli, Bengaluru, Karnataka 560105, India",12.788994,77.5943106,,5,2,,"hospital, health, point_of_interest, establishment",Opening hours not available,
ChIJ5V84sPprrjsRh2L9jFQY8vs,sri Balaji Medicals & General store,"5th Cross Road, #7, Bannerghatta Main Rd, Bilekahalli, Bengaluru, Harapanahalli, Karnataka 560076, India",12.788112,77.614922,,5,3,,"hospital, health, point_of_interest, establishment",Opening hours not available,
ChIJHfV3CtZrrjsRVnrTRj7wxrY,VLN Dispensary,"QJQ7+CCV, Koppa Gate Nisarga Rd, Nisarga Layout, Harapanahalli, Karnataka 560083, India",12.7886133,77.6135407,,,0,,"hospital, health, point_of_interest, establishment",Opening hours not available,
ChIJLX9x12tprjsR5OLtAznQWrc,N Swami Health Care,"QJCG+9W2, Vaderamanchana Halli, Bukkasagara, Karnataka 560105, India",12.7708762,77.6272559,,5,1,,"hospital, health, point_of_interest, establishment",Opening hours not available,
ChIJy7SQXTxprjsRh0Uc_WGNe-w,Sanjeevini medicals,"QJP9+F52, Nisarga Layout, Harapanahalli, Karnataka 560105, India",12.7861364,77.6178841,,5,1,,"hospital, health, point_of_interest, establishment",Opening hours not available,
ChIJW5zU6VFprjsRm_ZzMrzd8Uk,Medax Vijayashree Hospital,"187/2, Bommasandra Jigani Link Rd, Jigani, Karnataka 560105, India",12.7789575,77.6442788,http://www.medaxhospitals.com/,4.5,1254,,"hospital, health, point_of_interest, establishment",Open now,090350 58888
ChIJUccs4spvrjsRrllc1il83dM,Suhas Hospital,"APC CIRCLE (ಎ ಪಿ ಸಿ ವೃತ್ತ), Bommasandra Jigani Link Rd, Ittina Nagar, Jigani, Karnataka 560105, India",12.7801023,77.6427198,,4.4,379,,"hospital, health, point_of_interest, establishment",Open now,099000 95055
ChIJz3fvct9rrjsR_pAWCmDCJAA,Indira Hospital,"Bannerghatta Rd, Jigani, Karnataka 560105, India",12.7892482,77.6274202,,3.8,41,,"hospital, health, point_of_interest, establishment",Open now,098452 55911
ChIJbRg-dFpprjsRhtaK4oHwJAc,"Primary Health Centre, Jigani","SH 87, Ittina Nagar, Jigani, Karnataka 560105, India",12.781483,77.6420311,,3.5,35,,"hospital, health, point_of_interest, establishment",Closed,
ChIJDVDz9FxprjsRrgiluWi1a3s,Y.K. Hospital,"Jigni Industrial Estate Jigni Industrial Estate, QJHM+WV7, Bannerghatta Anekal Rd, Jigani, Karnataka 560105, India",12.7797803,77.6346673,,3.8,29,,"hospital, health, point_of_interest, establishment",Open now,098452 12649
ChIJn68UintprjsRmLTE6RATMIw,Camry Hospitals - Best Multi-Specialty Hospital in jigani,"old tent road, Jigani, Bengaluru, Karnataka 560105, India",12.7875819,77.63225,,4.2,17,,"hospital, health, point_of_interest, establishment",Open now,
ChIJB8N7xU9prjsR_C6YkMU08Mw,ESI,"QJGV+MPJ, Jigani, Karnataka 560105, India",12.7767236,77.6442768,https://www.esic.gov.in/,3.9,12,,"hospital, health, point_of_interest, establishment",Opening hours not available,1800 11 2526
ChIJqUA7-N9rrjsRfiDtOW1_IYk,"S.S Speciality centre, Dr. Chandrasekhar","QJQJ+82F, Jigani - Anekal Rd, Jigani, Karnataka 560105, India",12.7883069,77.6300338,,4.5,11,,"hospital, health, point_of_interest, establishment",Opening hours not available,094918 36352
ChIJ3UrwvydprjsRaJap5U_VOY8,VEDAA Dental & Aesthetics,"Vijayashree Medax Hospitals, APC Circle, Jigani, Karnataka 560105, India",12.7789837,77.6442927,https://www.vedaa.co/,4.9,111,,"hospital, dental_clinic, dentist, health, point_of_interest, establishment",Open now,
ChIJlSU0CFVrrjsReOl5MQzPZrI,Varma's Clinic,"3rd Main, 6th Cross Rd, Nisarga Layout, Bengaluru, Harapanahalli, Karnataka 560083, India",12.7894318,77.6199392,,3,1,,"hospital, doctor, health, point_of_interest, establishment",Open now,
ChIJc15kNltprjsRoiV1eFtGAiE,Vijayashree multi-specialty eye hospital,"284CL, Bommasandra Jigani Link Rd, Jigani, Karnataka 560105, India",12.7788866,77.6443076,,4,2,,"hospital, health, point_of_interest, establishment",Opening hours not available,
ChIJ4Qty_lVprjsR60ehabFZvas,SRI GANGA HEALTH CARE,"SHOP NO.1, TENT, KIRAN ARCADE, BUS STOP, opp. WHITE PEARL CONVENTION CENTRE, Jigani, Bengaluru, Karnataka 560105, India",12.7877239,77.6318658,,5,44,,"hospital, health, child_care_agency, point_of_interest, establishment",Open now,072596 50969
ChIJb8CiOl9prjsRGOcgkTbN8eY,Veterinary Hospital Jigani,"QJPP+H7F, Jigani, Karnataka 560105, India",12.7864417,77.6356754,,4.2,5,,"hospital, health, point_of_interest, establishment",Closed,
ChIJW_HsLiAVrjsR3EoSmYA_FQc,Dr Sandhya. Vijayashree eye hospital,"QJHV+HP4, Jigani, Karnataka 560105, India",12.7788761,77.6443183,,4.8,4,,"hospital, health, point_of_interest, establishment",Closed,080673 38888
ChIJm-Zz2XtrrjsRikE7wIsMsT8,Sanjeevini poly clinic,"Harappanalli, Bannerghatta Rd, Harapanahalli, Bengaluru, Karnataka 560105, India",12.7921007,77.6229456,,4.5,22,,"hospital, health, point_of_interest, establishment",Open now,080 2975 5941
ChIJNfCwQQBvrjsR0XgyXNDp05s,"ESIC Hospital, Bommasandra","100/P, Iggaluru Village, Bommasandra, Iggalur, Karnataka 562106, India",12.782568,77.703041,,,0,,"hospital, health, point_of_interest, establishment",Opening hours not available,
ChIJK5yc9llprjsRQUmOVIiDtA8,Balaji Clinic,"QJMR+8GJ, Jigani, Karnataka 560105, India",12.7833446,77.6412632,,5,4,,"hospital, health, point_of_interest, establishment",Opening hours not available,
ChIJQ42s_8NprjsR4Ndwuclh3Xw,Sushrutha Ayurdhama,"GF, 100, Plot No 5L, APC Circle, Bengaluru, Jigani, Karnataka 560105, India",12.7787499,77.6417252,,3.4,8,,"hospital, health, point_of_interest, establishment",Open now,080 2961 7665
ChIJER_2cKBurjsR8T-B9Z_bJPk,Elaj Clinic Hennagara - Biocon Foundation,"QMQF+WQ5, Hennagara, Bommasandra, Karnataka 560105, India",12.7897637,77.6744882,,4.6,5,,"hospital, health, point_of_interest, establishment",Opening hours not available,
ChIJc11DX9ZtrjsRtXH5mkxxelA,Athreya Hospital,"6/2B, Anekal Main road, Chandapura, Suryanagar Phase I, Suryanagar, Bengaluru, Chandrapura -Chatrakane, Karnataka 560099, India",12.7945268,77.706786,https://athreyahospital.com/,4.1,1519,,"hospital, health, point_of_interest, establishment",Open now,080 2783 2783
ChIJX85t2httrjsR9IO43KA5hCA,Dr Lal Path Labs Chandapura,"Shop No. 2, Balaji Complex, Chandapura - Anekal Rd, near KHB Surya Elegance, opposite BMTC Bus Depot, Suryanagar Phase I, Suryanagar, Iggalur, Bengaluru, Karnataka 560099, India",12.7901174,77.705441,,4.8,23,,"hospital, health, point_of_interest, establishment",Closed,096865 08670
ChIJgctqMQBvrjsRIaXzgvJgz1o,Nageswara Ayurvedic Bangalore,"QPQ3+JRF, Suryanagar Phase I, Suryanagar, Bommasandra, Iggalur, Karnataka 562106, India",12.7890485,77.7045411,,5,5,,"hospital, health, point_of_interest, establishment",Open now,
ChIJQ4JncSZtrjsRFCs8gPM0rDU,RMHC Homeopathy Clinic,"Venkateshappa Layout, Teachers Colony, Chandapura, Bommasandra, Chandrapura -Chatrakane, Karnataka 560099, India",12.796415,77.70708,,4.5,21,,"hospital, health, point_of_interest, establishment",Open now,098806 43335
ChIJPc5OrLttrjsRptY98YDYf5Y,Radhe Medicals,"Lanjappa Layout, Suryanagar Phase I, Suryanagar, Bengaluru, Bommasandra, Karnataka 560099, India",12.7953155,77.7014415,,5,1,,"hospital, health, point_of_interest, establishment",Open now,063620 89904
ChIJ96Jk1gNurjsRnLtV7BLh8qI,"Sri Sai Hospitals, Attibele","109/B2, Raghavendra Swamy Layout Yadavanahalli, Attibele, Hobli, Bengaluru, Karnataka 562107, India",12.787698,77.7417885,https://www.srisaihospitals.co.in/,4.9,2419,,"hospital, health, point_of_interest, establishment",Open now,082963 33399
ChIJqeYDeQFurjsRFYMInNoZAaI,E S I HOSPITAL,"QPQR+8VM, Krishnasagara, Karnataka 562107, India",12.7883401,77.7421674,,1,1,,"hospital, health, point_of_interest, establishment",Opening hours not available,1800 11 2526
ChIJ8Sbn-rFvrjsRj1BVYJ1WxyA,Sri balaji medicals and clinic,"Raghavendra Layout, guestline, Anekal, Karnataka 562107, India",12.7902077,77.7424275,,4.6,7,,"hospital, store, health, point_of_interest, establishment",Open now,
ChIJs6ThGAdurjsRneuASIJEMes,"Government Hospital, Neraluru","QPRQ+C4G, Gudahatti Rd, Karnataka 562107, India",12.7910608,77.7378279,,3,3,,"hospital, health, point_of_interest, establishment",Closed,
ChIJf-QKiftxrjsR4whCdaMqQXc,Srinidhi Medical And Genral Stores,"Yadavanhalli, Yadavanahalli, Karnataka 562107, India",12.7865723,77.7510491,,4.3,7,,"pharmacy, hospital, store, health, point_of_interest, establishment",Open now,099007 39414
ChIJQ18BOIdtrjsR9N2dvzuUbXQ,SHREE GURU MULTISPECIALITY CLINIC,"Hosur main road ,Opp to Srinidhi upachar ,Neralur gate ,Anekal, taluk, Raghava Nagar, Bengaluru, Karnataka 562107, India",12.7916198,77.7310323,,5,8,,"hospital, health, point_of_interest, establishment",Open now,
ChIJjWmk1k5vrjsR0vfPHkcOM3o,Sri Balaji Medicals,"Main road, RK Layout, Bandapura, Balagaranahalli, Bengaluru, Karnataka 562107, India",12.7874852,77.7345004,,4.6,5,,"hospital, health, point_of_interest, establishment",Open now,082703 54433
ChIJ7Rin1xcVrjsRadDdJ4eR6uU,"Speech Therapy clinic |Bangalore| |Home visits, online speech therapy|","Sipani bliss 1, electronic city, Thirumagondanahalli, Bengaluru, Bommasandra, Karnataka 562106, India",12.789587,77.719454,http://www.speechtherapybangalore.com/,,0,,"hospital, health, point_of_interest, establishment",Open now,088611 77741
ChIJR_kfYdZtrjsRteryt6M25go,Indira Hospital,"176, Anekal Main Road, Bannerughatta, Bengaluru, Iggalur, Karnataka 560105, India",12.7942738,77.7065115,,,0,,"hospital, health, point_of_interest, establishment",Opening hours not available,
ChIJ04TOePxxrjsRhmQVsUhs1SY,Sapthagiri Clinic,"QQP2+89J, Yadavanahalli Rd, Bengaluru, Karnataka 562107, India",12.7858479,77.7508817,,4,2,,"hospital, health, point_of_interest, establishment",Open now,098866 18564
ChIJXR-bsPBxrjsRcpGBGEQo5uQ,Oxford Medical College Hospital,"Thirumagondanahalli Service Rd, Jigala, Karnataka 562107, India",12.7882637,77.7574664,http://theoxfordmedical.org/,2.2,71,,"hospital, health, point_of_interest, establishment",Open now,080 6185 4101
ChIJLW6m4JZxrjsRHREe6r6feu4,N R Hospital,"QQGG+3G, NH 44, near Toll Plaza, Attibele, Karnataka 562107, India",12.7770323,77.7763782,http://www.nrhospitals.in/,4,120,,"hospital, health, point_of_interest, establishment",Open now,096320 36399
ChIJ5TWKKgFzrjsRedRENYmVRNE,Kalppa Virusha Hospital,"R.G Arcade, attibele - sarjapura Rd Anekal, Taluk, Attibele, Karnataka 562107, India",12.7816001,77.7714614,https://kalppavirishahospital.com/,4.6,725,,"pharmacy, hospital, doctor, health, store, point_of_interest, establishment",Open now,084319 22016
ChIJMcsxnpNxrjsRnCP95p_mqCU,Government hospital,"QQHC+JCJ, Attibele, Karnataka 562107, India",12.7790942,77.7710051,,2.9,20,,"hospital, health, point_of_interest, establishment",Closed,
ChIJRVAvAZNxrjsRpv43OgLCtK4,Raghava Multispeciality Hospital,"39, Opp Syndicate Bank, Anekal Taluk, Sarjapura - Attibele Rd, Bengaluru, Attibele, Karnataka 562107, India",12.7803654,77.7707144,,4.5,226,,"hospital, doctor, health, point_of_interest, establishment",Open now,080 2782 1454
ChIJkVTHl5RxrjsRLSn8i5DpM0k,"Sanjeevini Manjari Clinic, ಸಂಜೀವಿನಿ ಮಂಜರಿ ಕ್ಲಿನಿಕ್","above HDFC Bank, Attibele, Karnataka 562107, India",12.7771171,77.7697282,,3.1,53,,"hospital, health, point_of_interest, establishment",Open now,081054 99689
ChIJWRFmk61xrjsRTI77H8L6Uik,Attibele Health Care,"Site No.44 , First Floor , Attibele, T, behind Kanti Sweets, Anekal, Bengaluru, Karnataka 562107, India",12.7777543,77.7693498,,5,163,,"hospital, health, point_of_interest, establishment",Open now,080732 76585
ChIJHWo39SZxrjsROGqz8DOa-3I,TRINETRA EYE CARE,"3278/2, Anekal Rd, opposite to HDFC Bank, Attibele, Bengaluru, Karnataka 562107, India",12.7769124,77.7692752,,4.8,66,,"hospital, health, point_of_interest, establishment",Open now,063645 43015
ChIJ5ay8K80VrjsRaWzTGcaxUJ8,Apollo Diagnostics,"No 4, near KVH Hospital, Tilak Nagar, Attibele, Karnataka 562107, India",12.7815699,77.7714342,https://www.apollodiagnostics.in/,5,1,,"medical_lab, hospital, doctor, health, point_of_interest, establishment",Open now,081054 07823
ChIJJfX0DyVxrjsRUUBtrWCGBsU,Kottakkal Arya Vaidya Sala,"Sarjapur Road, near Canara bank, Attibele, Karnataka 562107, India",12.7796996,77.7709419,,4.8,15,,"hospital, health, point_of_interest, establishment",Open now,098454 96032
ChIJu1qdwJRxrjsRgdyN7fiaXkI,POORNAYU AYURVEDIC PANCHAKARMA SPECIALITY HOSPITAL & RESEARCH CENTER,"Shamsundar complex, Anekal Rd, Bengaluru, Attibele, Karnataka 562107, India",12.776399,77.769299,,4.6,21,,"hospital, health, point_of_interest, establishment",Open now,099454 17351
ChIJmTHmnhNxrjsRP9CAYBmiih8,Primary Health Center Government of Karnataka,"QQHC+JHR, Attibele, Karnataka 562107, India",12.7791105,77.7713905,,1,4,,"hospital, health, point_of_interest, establishment",Opening hours not available,
ChIJqw2aH5BxrjsRzIvB6jjQFMY,SHRINIVASA CLINIC,"QQG8+242, Attibele, Karnataka 562107, India",12.7750178,77.7652659,,5,1,,"hospital, health, point_of_interest, establishment",Open now,
ChIJeTnmXchxrjsRf69gv7crLOA,Indomed Hospitals,"NVR Complex, 2, sarjapur main road, Attibele, Bengaluru, Karnataka 562107, India",12.7857329,77.7739248,https://indomedhospitals.com/,4.8,26,,"hospital, health, point_of_interest, establishment",Open now,
ChIJE61qqBdHrjsR3_jSuPv8byw,Aradhya Multispeciality Hospital,"No 60/22/23/24 Mehar Baba Complex , Kadumane Gate, Eagle Town Road Bidadi hobli, Taluk, Bidadi, Bhimenahalli, Karnataka 562109, India",12.814946,77.4079304,,4.8,143,,"hospital, health, point_of_interest, establishment",Open now,081054 19810
ChIJBRCLwD1GrjsRyd9y_GNzejw,Subhash Hospital And Subhash College Of Nursing,"Ramanagara, SH-17, Bangalore Mysore Road, Ramnagar, Ramnagar, Karnataka 562159, India",12.8009004,77.3943077,,4.2,21,,"hospital, health, point_of_interest, establishment",Closed,
ChIJ0f4RZT1GrjsRLJMSYDBWno4,Subash Hospital And Management Studies,"R92V+8M9, SH17, Bidadi, Karnataka 562109, India",12.8007956,77.3942449,,3.9,29,,"hospital, university, health, point_of_interest, establishment",Opening hours not available,096110 80201
ChIJ30dLWepHrjsRyu6YKGu_hRc,Esi dispencery,"698, Bidadi, Karnataka 562109, India",12.7969766,77.3825622,,2.3,3,,"hospital, health, point_of_interest, establishment",Opening hours not available,1800 11 2526
ChIJhz5c3RhGrjsR2HsXH3u95DA,Padma Priya Polyclinic,"Q9WP+Q62, Gollara Palya, Karnataka 562109, India",12.7968757,77.3855282,,,0,,"hospital, health, point_of_interest, establishment",Opening hours not available,
ChIJHUmUkf9HrjsR5Tg4rGgguyE,SRI SAI MULTISPECIALITY CLINIC,"Q9XP+H8X, Gollara Palya, Karnataka 562109, India",12.7989838,77.3858561,,3.7,7,,"hospital, health, point_of_interest, establishment",Open now,098457 31507
ChIJS4WqYYRHrjsRAm8ojfL1X0c,Lakshmi Temple,"Q9WP+Q36, Unnamed Road, Kattigenahalli, Bengaluru, Karnataka 560064, India",12.7969122,77.3851305,,,0,,"hospital, health, point_of_interest, establishment",Opening hours not available,
ChIJMTk3d6VHrjsRSMtgMs6wPXM,SLN Hospital And Medical Store,"RC67+GXP, Maruthi Nagar, Bengaluru, Bhimenahalli, Karnataka 562109, India",12.8113476,77.4149449,,5,1,,"hospital, health, point_of_interest, establishment",Open now,
ChIJuUkAwBhGrjsRZKkXMfwRoWY,Sri Tibbadevi Health Care Center,"Q9XP+363, Gollara Palya, Karnataka 562109, India",12.7976384,77.3855489,,3.8,4,,"hospital, health, point_of_interest, establishment",Open now,098800 04671
ChIJNf3M38lHrjsRWxeMUT_JNqM,Physiotherapy center Subhash Hospital,"R92V+CP7, SH17, Bidadi, Karnataka 562109, India",12.8010392,77.3942111,,,0,,"hospital, health, point_of_interest, establishment",Open now,
ChIJ56EODPVHrjsRoKCEL3NF0JA,Urban Health Centre - Rayardoddi,"UPHC RAYARDODDI,RAYARDODDI, JEEGANHALLI, Ramanagara, Bengaluru, Karnataka 562109, India",12.8047866,77.4225194,,5,1,,"hospital, health, point_of_interest, establishment",Closed,
ChIJWQdpB3FBrjsR1tqWtiq7bqs,St. John's Medical College Hospital at Brigade Meadows,"Brigade Meadows, Salahunase Village, Kanakapura Main Rd, Bengaluru, Karnataka 560082, India",12.8130119,77.5103319,https://www.stjohns.in/Affiliated_Centers/Brigade_Meadows.php,3.3,92,,"hospital, health, point_of_interest, establishment",Open now,095919 90339
ChIJF74DsXRBrjsRh4YVY9EQMas,Kaggalipura Government Hospital,"RG36+RGJ, Bengaluru, Karnataka 560082, India",12.8045928,77.5112697,,3.8,48,,"hospital, health, point_of_interest, establishment",Open now,
ChIJYW4DNR1BrjsR7nEnZjhhnio,LIFELINE MULTI-SPECIALITY HOSPITAL KAGGALIPURA bangalore,"Kaggalipura, Kanakapura Main Rd, opposite muthooth finance, Bengaluru, Karnataka 560082, India",12.799065,77.507773,,3.4,5,,"hospital, health, point_of_interest, establishment",Open now,097410 71565
ChIJOVnzxHNBrjsRSpZbRDSxhwM,Loyal Medicals,"Shop No 1, Kaggalipura, Kanakapura Main Rd, Bengaluru, Karnataka 560082, India",12.8001625,77.5085231,,2.9,7,,"hospital, health, point_of_interest, establishment",Open now,
ChIJ2WVB43FBrjsRQMXzE7E5fow,Community Health Centre,"Saaluhunase, Bus Stop, NH209, Bengaluru, Karnataka 560082, India",12.8044792,77.5107076,,4.3,3,,"hospital, health, point_of_interest, establishment",Closed,
ChIJm1QZ7ppBrjsRDGjowtZR10s,Pradhan mantri Bharatiya jan aushadi Kendra,"RG36+PR9, Bengaluru, Karnataka 560082, India",12.8042988,77.5121223,,3,2,,"pharmacy, hospital, health, store, point_of_interest, establishment",Open now,098801 44443
ChIJ64eYz3RBrjsRT2u2xkql3Hk,"ಸಮುದಾಯ ಆರೋಗ್ಯ ಕೇಂದ್ರ,ಕಗ್ಗಲೀಫುರ,ಬೆಂಗಳೂರು-೫೬೦೦೮೨","Community Health Centre, Kaggalipura, Bengaluru, Karnataka 560082, India",12.8045267,77.5123459,,3.3,6,,"hospital, health, point_of_interest, establishment",Closed,
ChIJ6ZuRsqNBrjsR4RfcPzklwco,Cosmic Divine Healing Center,"Cosmic divine healing center #51 samrudhi nilaya srinidhi garden,kaggalipura,kanakapuara, mainroad, Bengaluru, Karnataka 82, India",12.8027534,77.5058366,,5,13,,"hospital, health, point_of_interest, establishment",Closed,
ChIJ17okKedBrjsRQv8EYnVh0iw,Lifeline Hospital - doctors nursing ultrasound home care x-ray blood test ecg echo diagnostics,"Kaggalipura Main Rd, Kaggalipur, Bengaluru, Karnataka 560082, India",12.7990666,77.5077663,,4.4,24,,"hospital, doctor, health, point_of_interest, establishment",Open now,097410 71565
ChIJOyevxXNBrjsRJu7BD2kmkyE,Narayana Swamy Medical & Clinic,"RG25+38V, Kaggalipura, Bengaluru, Karnataka 560082, India",12.8002406,77.5082944,,5,3,,"hospital, health, point_of_interest, establishment",Opening hours not available,098801 44443
ChIJsTiHcR9BrjsRFAuJH_vwwOw,"Dr. Srishti Dubey, Treated 7K+ Patients | Best General Physician in Bangalore | Fever & Diabetes Doctor","MFD Brigade arcade, saluhunase, Kaggalipura Rd, udyapura, Bengaluru, Karnataka 560082, India",12.8129,77.5087,https://www.apollo247.com/doctors/dr-Srishti-Dubey-45f2ea13-62e6-49f0-870f-8fa8d66986ef,,0,,"hospital, doctor, health, point_of_interest, establishment",Closed,080 4696 1837
ChIJe-tExnJBrjsRJActwsGR8Zg,Shrikara Ayurveda Panchakarma Yoga,"Uttari road, Kaggalipura, Bengaluru, Karnataka 560082, India",12.8033957,77.5064012,,4.9,12,,"hospital, doctor, health, point_of_interest, establishment",Open now,098445 76958
ChIJt809w3NBrjsRiqG0rH0FTbs,Trupti Clinic,"RG25+2FV, Bengaluru, Karnataka 560082, India",12.8001228,77.508668,,4.5,2,,"hospital, health, point_of_interest, establishment",Open now,
ChIJrRVd_nNBrjsRDLHstiGdb5Q,sri sai speciality clinic,"QGX6+R23, Bengaluru, Karnataka 560082, India",12.7995134,77.5100595,,,0,,"hospital, health, point_of_interest, establishment",Open now,073388 80228
ChIJX2llU6lBrjsRHy9mpZHETPQ,Sri Sri Ayurveda Hospital - NABH accredited Multi Specialty Ayurveda Hospital in Bengaluru,"Survey No. 189, O.B. Chordahalli, Udayapura Post, Kanakapura Road, South, Bengaluru, Badamanavarathekaval, Karnataka 560082, India",12.8221752,77.5217049,https://srisriayurvedahospital.org/,4.3,579,,"hospital, medical_lab, spa, doctor, health, point_of_interest, establishment",Open now,088846 98882
ChIJpz0aAfBBrjsREy3a3fqTSsk,dayananda sagar,"Dayananda Sagar Institution, Badamanavarathekaval, Karnataka 560082, India",12.8247059,77.5174227,,5,1,,"hospital, health, point_of_interest, establishment",Opening hours not available,
ChIJV7lEbwBBrjsRfR-mdaq4YKE,Sri Sri Ayuveda hospital Reception,"RGFC+3P6, Badamanavarathekaval, Bengaluru, Karnataka 560082, India",12.8222661,77.5221565,,5,2,,"hospital, health, point_of_interest, establishment",Opening hours not available,
ChIJmYa63N5BrjsRm-HXOa_gt-Q,Sri Maruthi Medicals,"RGC7+68V, Udayapur village, Badamanavarathekaval, Karnataka 560082, India",12.8206188,77.513301,,3,2,,"hospital, health, point_of_interest, establishment",Open now,082773 56726
ChIJCdP8heZBrjsRYAt470UrLFM,Asirbhavan PDDM HOLISTIC CENTER,"Kaggalipura Rd, Gottigere, Bengaluru, Karnataka 560083, India",12.8021535,77.5537153,,5,10,,"hospital, health, point_of_interest, establishment",Opening hours not available,
ChIJ270XEQBrrjsRDeYIJLK-nK4,Cloudnine - Parijatha Hospital,"No 58, Bannerghatta To Jigani Main Road, adj. to HP Bunk, near School of India Arch, Bengaluru, Karnataka 560083, India",12.8110582,77.5861556,http://www.parijathahospitals.com/,4.8,68,,"hospital, pharmacy, store, doctor, health, point_of_interest, establishment",Open now,099866 65239
ChIJVwwKfF1rrjsRLt4v5bNcvnM,Government Ayurveda Chikitsalaya,"RH7M+22R, Bannerughatta, Bengaluru, Karnataka 560083, India",12.8126013,77.5825048,,5,4,,"hospital, health, point_of_interest, establishment",Opening hours not available,
ChIJ32MgLr9rrjsR3eNTuWU8g30,"Vrudhi Eye, Dental and Skin Care","Vrudhi Eye and Dental care No-42/2, 1st Floor, AN Complex, Police Station, near Bannerghatta, Bengaluru, Karnataka 560083, India",12.8129424,77.58053,,4.9,64,,"skin_care_clinic, dental_clinic, hospital, health, point_of_interest, establishment",Closed,080 2390 0954
ChIJx1BRbzFrrjsR_G-bDyaFbwo,Uno Healthcare Services,"Medplus, Bannerghatta Bus Station, next to Butterly, Bengaluru, Karnataka 560076, India",12.8002629,77.5771355,https://uno-healthcare-services.ueniweb.com/?utm_campaign=gmb,5,2,,"hospital, health, point_of_interest, establishment",Open now,088808 67890
ChIJc8KAzGtqrjsRK69oNElxCM0,Hospital,"20, Milestone Bannerughatta Villiage, Bengaluru, Karnataka 560083, India",12.8130958,77.5818204,,3.6,5,,"hospital, health, point_of_interest, establishment",Opening hours not available,
ChIJXfFllUBqrjsRC21la1hSdYc,KVG Hospital,"RH6Q+4J9, Laxmipura, Bengaluru, Karnataka 560083, India",12.8102962,77.5890972,,3.7,3,,"hospital, health, point_of_interest, establishment",Opening hours not available,
ChIJ9w_icmdrrjsR8HCfpm9M68o,Banashankari Pharma,"169 Vasnthappa Building Bannerghatta Post And Village, Bengaluru, Karnataka 560083, India",12.8134523,77.5804834,,5,1,,"pharmacy, hospital, store, health, point_of_interest, establishment",Opening hours not available,063662 13956
ChIJiZAyRZJrrjsR4hxEgn4ZgLQ,"Mysha health clinic,Dr Farah siddiqua","RHF9+V3V, Bilwaradahalli, Karnataka 560083, India",12.8247281,77.5676735,,,0,,"hospital, health, point_of_interest, establishment",Opening hours not available,
ChIJLeR0fFFqrjsRqSwzy2SVZ3Y,"Sakalavara Community Mental Health Center, NIMHANS","RJF2+HMW, Sakalavara, Karnataka 560083, India",12.8239759,77.6017121,https://nimhans.ac.in/sakalawara-community-mental-health-center/,4.9,36,,"hospital, point_of_interest, health, establishment",Closed,080 2783 7071
ChIJs-MlEjRrrjsRS6YXhFFT5NM,Ekana Hospitals,"No. 26/27, Near Navodaya School, Harapanahalli, Jigani Hobli, Anekal Taluk, Bengaluru, Jigani, Karnataka 560105, India",12.7887765,77.6274455,,5,2,,"hospital, point_of_interest, health, establishment",Open now,070907 12225
ChIJb9wD7gJrrjsRr83lB-820kg,Mithra Multispeciality Hospital,"No 6, SR Layout, Kyalasanahalli Village Jigani Town, Neeladri, Bommasandra Jigani Link Rd, Electronics City Phase 1, Kyalasanahalli, Bengaluru, Bommasandra, Karnataka 560105, India",12.8041618,77.6528247,http://www.mithrahospital.com/,4.1,187,,"hospital, consultant, point_of_interest, health, establishment",Open now,081059 02227
ChIJs19lIwltrjsRjmB4hJ1_V6E,"Hebbagodi Primary Health Centre, Thirupalya","RM99+4FH, Thirupalya, Bommasandra, Karnataka 560099, India",12.8178044,77.6687211,,4.5,11,,"hospital, point_of_interest, health, establishment",Closed,
ChIJUQD1JWxsrjsR-VSoZsum4PM,Hebbagodi Govt Hospital,"RM99+4FH, Thirupalya, Bommasandra, Karnataka 560099, India",12.8178044,77.6687211,,3.1,22,,"hospital, point_of_interest, health, establishment",Opening hours not available,
ChIJl09U_01trjsR2Pg_w70g-iA,Jangu Multispeciality Clinic,"shop no 2, Thirupalya Main Rd, opp. to GM INFINITE, Neotown, Bommasandra Industrial Area, Bengaluru, Bommasandra, Karnataka 560099, India",12.819924,77.6618703,http://jangupharma.in/,5,112,,"hospital, point_of_interest, health, establishment",Open now,077374 99182
ChIJf4ofGkdtrjsRDwNGAapbkJE,Tirupalaya Primary Health Centre,"RM99+4FG, Thirupalya, Bommasandra, Karnataka 560099, India",12.8178491,77.6687346,,,0,,"hospital, point_of_interest, health, establishment",Opening hours not available,
ChIJ4e-NlXFsrjsRwIw7QWdYpvg,MITHR WOMEN'S HEALTH,"30/44, Thirupalya Road adj. to GM INFINITE E CITY, Neotown Rd, Electronics City Phase 1, Electronic City, Bengaluru, Bommasandra, Karnataka 560100, India",12.8193935,77.6633138,http://www.mithrwomenshealth.com/,3.6,105,,"medical_lab, hospital, point_of_interest, doctor, health, establishment",Open now,070222 72001
ChIJHQAW6jNsrjsRB_hcMqk9aVE,Mazumdar Shaw Medical Center,"258/A, Hosur Rd, Bommasandra Industrial Area, Anekal, Bengaluru, Karnataka 560099, India",12.8065639,77.6947958,https://www.narayanahealth.org/hospitals/bangalore/mazumdar-shaw-medical-centre-bommasandra?utm_source=Googlemaps&utm_medium=GMB,4.9,30037,,"hospital, health, point_of_interest, establishment",Open now,080 6215 4542
ChIJMeuXxpJtrjsR7OG82oDa3Xc,Narayana Health City,"258/A, Hosur Rd, Bommasandra Industrial Area, Anekal, Bengaluru, Karnataka 560099, India",12.8091968,77.6950971,https://www.narayanahealth.org/hospitals/bangalore/mazumdar-shaw-medical-centre-bommasandra/?utm_source=Googlemaps&utm_medium=GMB,4.7,3529,,"hospital, health, point_of_interest, establishment",Open now,080 6215 4298
ChIJA35m-idtrjsRnd0X1sa8gDI,Narayana Hrudayala HS,"Bommasandra Industrial Area, Bommasandra, Karnataka 560099, India",12.8085176,77.6944092,,3.7,62,,"hospital, health, point_of_interest, establishment",Opening hours not available,1800 309 0309
ChIJC3oJEzRsrjsRHljLz2cjZss,NH Health City - Platinum Wing,"Hosur Road, Anekal, 258/A, Narayana Health City Rd, Bommasandra Industrial Area, Bengaluru, Bommasandra, Karnataka 560099, India",12.8069268,77.6949135,,4.3,110,,"hospital, health, point_of_interest, establishment",Open now,
ChIJmx7k2EdtrjsRaC98_4Pg7bM,"Sunray Multispeciality Hospital | Gynecologist, ENT, Gastro, Orthopedic | Chandapura","Chandapura Circle , next To Karur Vysya Bank , Chandapura, Anekal, taluk, Teachers Colony, Chandapura, Bengaluru, Chandrapura -Chatrakane, Karnataka 560081, India",12.8017811,77.705887,https://sunrayhospitalbangalore.com/,4.7,700,,"hospital, doctor, health, point_of_interest, establishment",Open now,081500 24454
ChIJBxmzPkNtrjsRtkVbcNw8P6s,Narayana Health Rehabilitation Centre,"143b, Hebbagodi, Vinayaka Nagar, Bommasandra Industrial Area, Bengaluru, Bommasandra, Karnataka 560099, India",12.8223256,77.6747576,https://www.narayanahealth.org/hospitals/specialities/physiotherapy-rehabilitation,4.8,74,,"hospital, health, point_of_interest, establishment",Closed,1800 309 0309
ChIJcz25wTNsrjsRTIdchP0qIfs,Kiran Mazumdar Cancer Center,"29/P2, Hosur Rd, Bommasandra Industrial Area, Bengaluru, Bommasandra, Karnataka 560099, India",12.8065796,77.6947935,,3.5,31,,"hospital, health, point_of_interest, establishment",Open now,080 2783 2648
ChIJc9-XQW5trjsR5ZqJdCcLQSI,BEST HOSPITAL,"413, Hosur Rd, Beside Railway bridge, Near K.M.S Kalyana Mandira, Teachers Colony, Chandapura, Bengaluru, Chandrapura -Chatrakane, Karnataka 560099, India",12.8015106,77.7078921,,3.8,168,,"hospital, health, point_of_interest, establishment",Open now,081973 25545
ChIJkTo6NMBtrjsR8yhQAXd8daw,NH Health International Wing,"RM5V+JP6, Bommasandra Industrial Area, Bommasandra, Karnataka 560099, India",12.8090423,77.6942681,,3.2,14,,"hospital, health, point_of_interest, establishment",Open now,1800 309 0309
ChIJlwZZ5M1trjsR4lX5s98io4w,Government Hospital Chandapura,"RP33+HR4, Tranquil City, Bommasandra Village, Chandrapura -Chatrakane, Karnataka 560099, India",12.8038952,77.7045758,,2.8,58,,"hospital, health, point_of_interest, establishment",Closed,
ChIJe8h5iuhtrjsRnfCCE15zoY4,Advitha Pet Hospital - Chandapura,"Near Chandapura railway bridge, Hosur Rd, opp. to BEST HOSPITAL, M R Layout, Tranquil City, Bommasandra Village, Bengaluru, Chandrapura -Chatrakane, Karnataka 560081, India",12.8023559,77.708698,https://advithapethospital.com/contact/,4.9,936,,"hospital, health, point_of_interest, establishment",Open now,091089 00857
ChIJsc2AedJtrjsRWoR3l7N3wGk,Sri Chakra Hospital and vaccination centre,"90/4, Chandapura Circle, Hosur Rd, near Keerthana International Hotel, Keerthi Layout, Terracon Residency, Suryanagar, Bengaluru, Chandrapura -Chatrakane, Karnataka 560099, India",12.8025503,77.7027378,,3.5,40,,"hospital, doctor, health, point_of_interest, establishment",Open now,096630 00065
ChIJgTTgs0lsrjsRc1gVhISU7nc,Sri Venkateshwara Nursing Home,"RM8R+6F9, Bommasandra Industrial Area, Bengaluru, Bommasandra, Karnataka 560099, India",12.815542,77.6912358,,3.2,46,,"hospital, health, point_of_interest, establishment",Open now,
ChIJd9EcStBtrjsRu9VELUFj2rA,AAYUSH HOSPITAL - CHANDAPURA,"151/2, Old Chandapura, Hosur Main Road, Towards Lakshmisagara Road, Anekal, Taluk, Biotech Park, Chandapura, Bengaluru, Bommasandra, Karnataka 560081, India",12.8028253,77.7118771,https://aayushhospital.org/,4.5,886,,"pharmacy, doctor, store, hospital, health, point_of_interest, establishment",Open now,094484 40892
ChIJ2ewy6khtrjsRfUKnVxy9e-w,MAGNA MULTISPECIALITY CLINIC,"SHOP NO 2 , KMS BUILDING, NH-7 IN FRONT, CHANDAPURA OF KMS KALYANA MANTAPA ANEKAL TQ, Teachers Colony, Chandapura, Chandrapura -Chatrakane, Karnataka 560081, India",12.8017731,77.7068064,,4.6,125,,"skin_care_clinic, physiotherapist, hair_care, beauty_salon, doctor, store, hospital, health, point_of_interest, establishment",Open now,063622 19949
ChIJ7con6TNsrjsREsHF5JOHlew,Mazumdar Shaw Translational Centre,"29/P2,, 29/P2, 8th floor, inside Narayana health city, Hosur Rd, Bommasandra Industrial Area, Bengaluru, Bommasandra, Karnataka 560099, India",12.8093449,77.6961618,,4.5,28,,"hospital, health, point_of_interest, establishment",Opening hours not available,
ChIJJ0IcmjdxrjsRXbPTJY6S8K0,Sri Venkateshwara Hospital,"Site No 1, SKY HEIGHTS, 2, Sarjapura - Attibele Rd, Indelebele Village, Bengaluru, INDALABELE, Karnataka 562107, India",12.7915574,77.7769871,,5,1,,"hospital, health, point_of_interest, establishment",Opening hours not available,
ChIJhxrznmNxrjsRYuALgk9Dzhc,Govt Hospital,"Bagur road,Begapalli, QRR4+Q5H, Hosur, Tamil Nadu 635109, India",12.7919474,77.8054862,,3.8,13,,"hospital, health, point_of_interest, establishment",Closed,
ChIJC94Z559xrjsR4Meq8IE37w4,Nallampatti broken bone best treatment center KRISHNAGIRI (D.T) HOSUR - 635126.,"3/335, Govinda Agraharam circle Check post road, Begepalli, sipcot, Hosur, Tamil Nadu 635126, India",12.779038,77.7991409,https://book-appointment.healthplix.com/dr-n-p-muniyappan-physician-2nd-cross-begepalli--sipcot--hosur,4.9,181,,"doctor, hospital, health, point_of_interest, establishment",Open now,094423 02749
ChIJ3UcCOMVHrjsRjz_CDK6t6pk,SRS MEDICAL AND CLINIC,"wonderla gate, Hampapura Road, near Kanthi sweets, Bengaluru, Karnataka 562109, India",12.834008,77.4150337,,5,1,,"hospital, health, point_of_interest, establishment",Open now,
ChIJA_ZvYbtJrjsRaBspsgLB5-s,Rotary rural health centre kakaramanahalli district Ramnagar Karnataka,"R9J6+MP7, Kakaramanahalli, Karnataka 562109, India",12.83166,77.3617967,,,0,,"hospital, health, point_of_interest, establishment",Opening hours not available,
ChIJL6Jl2zlHrjsRA56WB0FSdgg,"Dr. Divya G Nair, Treated 16K+ Patients | Best Dentist in Bangalore | RCT | Wisdom Teeth Removal","Orofacia Dental Clinic, Bengaluru, Karnataka 560075, India",12.836,77.4149,https://www.apollo247.com/doctors/dr-Divya-Nair-e3a4aa3a-4551-4ab8-ac5b-88360651a1cd,,0,,"dentist, dental_clinic, hospital, doctor, health, point_of_interest, establishment",Open now,080 4696 1837
ChIJrw6fv2xHrjsRJlXZoGAf4qk,Government Hospital,"RFQ2+QR2, Kumbalagodu-Gollahalli Rd, Kengeri Hobli, Bengaluru, Karnataka 560082, India",12.8393956,77.4520016,,4,9,,"hospital, health, point_of_interest, establishment",Opening hours not available,
ChIJtevsClhHrjsRRt29Kp1MBRE,Primary Health Centre,"k, gollahalli, Kengeri Hobli, Bengaluru, Karnataka 74, India",12.8394148,77.4519537,,4.5,2,,"hospital, health, point_of_interest, establishment",Closed,
ChIJUw2NxCNHrjsRAto6YDKwzvY,Government Veterinary Hospital,"RFJ2+H9H, Gonipura, Bengaluru, Karnataka 560082, India",12.8314473,77.4509817,,4,1,,"hospital, health, point_of_interest, establishment",Opening hours not available,
ChIJeX7v5BlBrjsRQCvBtIjWrDY,"Sanathana Yoga & Nature cure Hospital,LK Trust","RF8X+F6J, Bengaluru, Karnataka 560082, India",12.8162074,77.4980002,,,0,,"hospital, health, point_of_interest, establishment",Opening hours not available,
ChIJE2ETdwBBrjsRUG9HvQXYAjc,BMS Hospital UNIT II,"RFRP+99F, Agara, Bengaluru, Karnataka 560060, India",12.8409382,77.4859175,,4.3,15,,"hospital, health, point_of_interest, establishment",Open now,
ChIJ6SRJ3WI_rjsRBZ0CPTwdO8A,WhiteZ Dental Holistic and Biological Dentistry,"Second Floor, Survey No 133, VM Square, Kanakapura Main Rd, beside Dayanand Sagar Engineering College, Badamanavarathekaval, Bengaluru, Karnataka 560082, India",12.8261352,77.5134861,https://whitezdental.com/,5,34,,"dental_clinic, dentist, hospital, doctor, health, point_of_interest, establishment",Open now,098800 84033
ChIJD3gdxAZBrjsR44nUuIyoz0I,Agara PHC,"RFVQ+QVM, Agara, Bengaluru, Karnataka 560062, India",12.8444551,77.4896586,,4.2,5,,"hospital, health, point_of_interest, establishment",Closed,
ChIJu86vJ1tBrjsRmP6CB91w_SI,Rotary Bangalore Lalithamma Hospital,"Agara, Bengaluru, Karnataka 560062, India",12.844485,77.4896037,,2,1,,"dental_clinic, hospital, health, point_of_interest, establishment",Opening hours not available,
ChIJ9-C5me5ArjsRK2I1ueUuHtM,"Abhaya Medical college, Aagara","RGV2+C64, Badamanavarathekaval, Karnataka 560062, India",12.843517,77.5005645,,1,1,,"hospital, health, point_of_interest, establishment",Open now,
ChIJYSyEoblBrjsRryg3PeTcbpE,Karatandavam Ayurveda Centre,"Laasya Priya Nilaya, 38/1, Kanakapura Main Rd, near shaneshwara temple, Bengaluru, Karnataka 560062, India",12.8382902,77.5157984,,4,4,,"hospital, health, point_of_interest, establishment",Open now,094807 27655
ChIJuRoozpJqrjsRTKsSlKFhNcc,Vinayaka Hospital,"529, 4th Cross Rd, Weavers Colony, Gottigere, Bengaluru, Karnataka 560083, India",12.8445705,77.584371,,3.2,32,,"hospital, health, point_of_interest, establishment",Open now,080 2842 9485
ChIJr2pnxJJqrjsRvocfHmkR15U,Banashankari Hospital,"963/A, Bannerghatta Rd, Weavers Colony, Gottigere, Bengaluru, Karnataka 560083, India",12.8442679,77.5837613,,3.7,20,,"hospital, health, point_of_interest, establishment",Open now,099864 42239
ChIJI8yQ96BrrjsRIl2BMynpd-I,DOCTOR HEAL HOSPITAL & DIAGNOSTICS,"Road, next to Kaushalya Vikas Kendra, Weavers Colony, Pillaganahalli, Bengaluru, Karnataka 560083, India",12.842817,77.5858598,,4.9,976,,"hospital, health, point_of_interest, establishment",Open now,085498 80144
ChIJVcLVMctrrjsRgqtE2x7VULI,HARSHAVARDHANA HEALTH CENTER,"RHVJ+MWC, Weavers Colony, Gottigere, Bengaluru, Karnataka 560083, India",12.8441798,77.5822666,,1,1,,"hospital, health, point_of_interest, establishment",Opening hours not available,090357 80021
ChIJJRL_GxtrrjsR8s0LSkhH__A,Shri Dhanvantari polyclinic & medicals,"1890 7th cross, Bannerghatta Rd, Maruthi Layout, Weavers Colony, Gottigere, Bengaluru, Karnataka 560083, India",12.8428898,77.5819445,,5,32,,"hospital, health, point_of_interest, establishment",Open now,077958 70040
ChIJZQrOOrBrrjsRCDj0hqqhWfA,SNEHA HEALTH CARE AND A J MEDICAL,"Pillaganahalli, Bengaluru, Karnataka 560083, India",12.83626,77.5769688,,5,5,,"hospital, health, point_of_interest, establishment",Open now,
ChIJ46triLhrrjsR5XHSf1Pu618,Dr. Hiremath- Paediatrician In Bengaluru,"Vinayaka Hospital. 529, 4Th Cross, Viewers Colony, Gottigere, Post, Weavers Colony, Bannerughatta, Bengaluru, Karnataka 560083, India",12.8445757,77.5821823,https://drhiremath.getmy.clinic/?utm_source=gmb&utm_medium=web&utm_campaign=tu,,0,,"hospital, local_government_office, doctor, government_office, consultant, health, point_of_interest, establishment",Closed,
ChIJW46OvDJBrjsRD5C3DMEfkXg,Hospital,"Chikanna complex, Sri sayi sreshta, hospital Shanbhoghanahalli, Shanboganhalli, Bilwaradahalli, Karnataka 562201, India",12.8267668,77.5606509,,5,1,,"hospital, health, point_of_interest, establishment",Open now,
ChIJ2__kqdNrrjsRPk6R-fB-AH8,Blossom Rehabilitation Centre,"Dinnepalya, RJR4+674, Village, Bengaluru, Karnataka 560083, India",12.840522,77.6056949,,4.1,16,,"hospital, health, point_of_interest, establishment",Open now,080731 26248
ChIJqTk1KABrrjsRnvhsIaPf82o,Ragu medical & General Store,"RHWV+973 324 Building, Krishna Reddy Layout, Basavanapura, Bengaluru, Karnataka 560083, India",12.8458943,77.5929686,,5,13,,"hospital, health, point_of_interest, establishment",Open now,
ChIJQcmDDyVrrjsRCLhEQHTtCrw,Sri Maruthi Medicals,"No 592/128, 10th Cross, Sri Renuka Yellamma Layout, Begur - Koppa Rd, Mylasandra Dinne, Bengaluru, Karnataka 560068, India",12.8392427,77.6141721,,5,8,,"hospital, health, point_of_interest, establishment",Open now,097395 33955
ChIJCwWHCQBrrjsRSrrkY2Jwpkg,SRI HARSHAVARDANA HEALTH CENTER,"RJH5+QWC, Road, CK Palya, Hullahalli, Bengaluru, Karnataka 560083, India",12.8294447,77.6097514,,,0,,"hospital, health, point_of_interest, establishment",Opening hours not available,
ChIJU5TU17NrrjsRW6faORxICd8,Cloudnine Hospital - Electronic City | Best Maternity & Pregnancy Centre,"No. 3, Neeladri Rd, opp. Puma Showroom, Neeladri Nagar, Electronics City Phase 1, Electronic City, Bengaluru, Karnataka 560100, India",12.8418208,77.6448446,https://www.cloudninecare.com/centre/electronic-city?utm_city=bengaluru&utm_source=gmb&utm_medium=organic&utm_campaign=bengaluru+electronic-city+c9-hospital-gmb-website+c9-hospital-electronic-city&utm_content=website-button,4.8,4022,,"hospital, doctor, health, point_of_interest, establishment",Open now,099728 99728
ChIJ1ZgEiHptrjsRZJYBtUxOfTo,Dr Agarwals Eye Hospital,"2nd Floor, Himagiri High Street. 106/1 Electronic City, Electronics City Phase 1, Doddathoguru, Bengaluru, Karnataka 560100, India",12.8420177,77.643911,https://www.dragarwal.com/,4.7,381,,"physiotherapist, hospital, doctor, health, point_of_interest, establishment",Open now,095949 03749
ChIJIb-cs9FrrjsRs27LC4JW9xo,Sri sai multi speciality hospital,"Bettadasanapura, Bengaluru, Karnataka 560068, India",12.839503,77.6298375,,3.9,61,,"hospital, health, point_of_interest, establishment",Open now,096635 66677
ChIJY827O3NrrjsR_-0-RhsdQ_Q,Heera Clinic,"Bettadasanapura Main Rd, near church, Bettadasanapura, Bengaluru, Karnataka 560100, India",12.842063,77.6326995,,4.6,27,,"hospital, health, point_of_interest, establishment",Open now,092063 40864
ChIJg5QCveRrrjsRAoeQRbB0kNQ,Lakshminatha Ayurvedic Center,"1st & 4th Floor uniworld commercial block Opp to cloud-9 hospital behind Style Union & Hotel Nandana palace Neeladri road, Doddathogur Rd, Neeladri Nagar, Electronics City Phase 1, Electronic City, Bengaluru, Karnataka 560100, India",12.8413856,77.6450268,https://site.dgtechsoln.com/laksminatha-ayurvedic-center/,4.8,67,,"hospital, health, point_of_interest, establishment",Open now,077953 84346
ChIJi9qDamRrrjsRi7cZeMxbdO4,Dr. Mohanbabu Amberkar | Best General Practitioner Doctor Near Me|22yrs Exp|Bangalore,"171, 12th Cross Rd, Fresh point, chats lane, opposite GLR Vintage Apartments, Neeladri Nagar, Electronics City Phase 1, Doddathoguru, Bengaluru, Karnataka 560100, India",12.8397831,77.6472857,https://www.apollo247.com/doctors/dr-mohanbabu-amberkar-f4324064-347b-44f7-ba6f-33ad5dda689c?utm_source=gmb_docverse&utm_medium=clinics&utm_campaign=doctors,4.8,197,,"hospital, doctor, health, point_of_interest, establishment",Open now,080 4464 3829
ChIJS3_ZL6JrrjsRc8GNBmub1Y4,Holistic Life Care,"RJHM+J6H, S.Bingipura, Karnataka 560105, India",12.8290598,77.6331188,,4.3,12,,"hospital, health, point_of_interest, establishment",Closed,099021 05448
ChIJP2267W5rrjsR0MozFXZhsks,Neo true North hospital,"Sy. No. 110/4, Rebus Realm, 1, Neeladri Main, Road, Doddathoguru, Bengaluru, Karnataka 560100, India",12.847407,77.6439033,,4.2,476,,"hospital, health, point_of_interest, establishment",Open now,080 4848 4789
ChIJIch6p3trrjsRif-SgrCNcgo,Motherhood Hospital Electronic City – Best Maternity Hospital In Bangalore,"8312/164, Survey 164, Neeladri Rd, Karuna Nagar, Electronics City Phase 1, Electronic City, Bengaluru, Karnataka 560100, India",12.840945,77.6513806,https://www.motherhoodindia.com/locations/bangalore/electronic-city-unit/?utm_source=gmb_mhi&utm_medium=localseo&utm_campaign=electronicity,4.8,5226,,"hospital, doctor, health, point_of_interest, establishment",Open now,080672 38911
ChIJEcZjwZ1srjsRbo-1WVISWyg,Sri Laxmi Hospital,"Doddathogur Rd, Electronics City Phase 1, Electronic City, Doddathoguru, Bengaluru, Karnataka 560100, India",12.8504342,77.6552359,,3.1,141,,"hospital, health, point_of_interest, establishment",Open now,080 4111 6881
ChIJmdD1ul5srjsR_ISQXG96r-M,Mahesh Health Care,"Hosur Rd, Kammasandra, Electronic City, Bengaluru, Karnataka 560100, India",12.8309129,77.6816513,,4.4,311,,"doctor, hospital, health, point_of_interest, establishment",Open now,088927 63431
ChIJ1UU_LHxrrjsRrNxTJHW-yFw,Anjana Child Care by BabyMD - Electronic City,"1st Floor, 227, 2nd Cross Rd, above Axis Bank, Neeladri Nagar, Electronics City Phase 1, Electronic City, Bengaluru, Karnataka 560100, India",12.8406074,77.6504909,https://babymd.in/,4.6,1674,,"hospital, doctor, health, point_of_interest, establishment",Open now,096867 62605
ChIJmzjRXpxsrjsRBPeVVe12ow8,Narayana Multispeciality,"Velankani Drive, Electronics City Phase 1, Electronic City, Bengaluru, Karnataka 560100, India",12.848964,77.657578,https://www.narayanahealth.org/hospitals/bangalore/narayana-multispeciality-clinic-electronic-city-niladri-road?utm_source=Googlemaps&utm_medium=GMB,4.3,734,,"hospital, doctor, health, point_of_interest, establishment",Open now,080675 06870
ChIJE-Id5ClrrjsR-7i8MFyo2vA,E CITY HOSPITALS,"Maha Yogi Vemana Rd, Electronics City Phase 1, Doddathoguru, Bengaluru, Karnataka 560100, India",12.8504149,77.656627,http://www.ecityhospitals.in/,4.2,641,,"physiotherapist, dentist, hospital, doctor, health, point_of_interest, establishment",Open now,096060 48471
ChIJJwxP8WJsrjsRM13HfJlG0CI,BABY'S DAY OUT CHILDREN CLINIC AND MULTISPECIALITY CENTRE,"5, Sy.No.121, 13, Gollahalli Main Rd, Gollahalli, Electronic City, Bengaluru, Karnataka 560100, India",12.83335,77.66758,https://sacredoakhospital.com/electronic-city-phase-1,4.8,168,,"hospital, doctor, health, point_of_interest, establishment",Open now,097421 98844
ChIJj2MUcTVtrjsR1WscveikCjI,C V Hospital,"143b, Bommasandra Industrial Area, Vinayaka Nagar, Hebbagodi, Bengaluru, Bommasandra, Karnataka 560099, India",12.8229916,77.6744159,https://www.facebook.com/cvhospital.in,4,1,,"hospital, health, point_of_interest, establishment",Closed,
ChIJ-VnMbl9srjsR3uWWXyLt5NM,Vimalalaya Hospital,"Huskur Gate, Hosur Rd, Post, Electronic City, Bengaluru, Karnataka 560100, India",12.8349475,77.6803671,http://www.vimalalayahospital.com/,3.3,603,,"hospital, health, point_of_interest, establishment",Open now,095130 25255
ChIJJaoWAYRsrjsRIdkg92tsqqc,Springleaf Hospital,"60/3, Hosur Rd, next to Andra Bank, Konappana Agrahara, Electronic City, Bengaluru, Karnataka 560100, India",12.8525896,77.6675444,https://www.springleaf-healthcare.com/,4.2,1629,,"hospital, doctor, health, point_of_interest, establishment",Open now,074111 22444
ChIJHWn3l4BtrjsRAuUHk5DXZ_I,NV Hospital,"Govinda Shetty Palya Rd, Phase II, LHR layout, Bengaluru, Karnataka 560100, India",12.8524953,77.6731506,,4.5,101,,"hospital, health, point_of_interest, establishment",Open now,090081 06900
ChIJiWjTtD1trjsRVO_TkxWZ0C0,JJ HOSPITALS,"Phase 1, Kammasandra, Electronic City, Bengaluru, Karnataka 560100, India",12.8350364,77.694069,,3.9,237,,"hospital, dental_clinic, pharmacy, doctor, health, store, point_of_interest, establishment",Open now,080 4165 5354
ChIJuaopy49trjsRL3B1GQ244rM,"SANDESH ALVA CHILDREN CLINIC, CHILD VACCINATION CENTRE AND WOMEN'S CARE CLINIC ( PAEDIATRICIAN AND GYNECOLOGIST)","No-020, 4th Main, 5th A main, 1, Kammasandra Village Rd, Ananth Nagar, Shree Ananth Nagar Layout, Phase II, Electronic City, Bengaluru, Karnataka 560100, India",12.8366598,77.685452,,4.7,465,,"hospital, health, point_of_interest, establishment",Open now,098863 82686
ChIJeXqgdzNtrjsRofYmGl-S6Ms,NIMS Hospital Bengaluru,"Syno:82/11 old no:182/1, Singgene Agrahara Village Sarjapura Hobli, Taluk, Gulimangala, Anekal, Bengaluru, Karnataka 560100, India",12.839471,77.6973341,https://nimshospital.net/,4.8,32,,"hospital, health, point_of_interest, establishment",Open now,076768 74684
ChIJn9WRqgdtrjsRJPBeBnp0JHw,Yashaayu Ayurveda,"1234, hamsa arcade, 3rd floor, 9th cross, phase2, Hosur Rd, opposite to more super market, Ananth Nagar, Phase 1, Kammasandra, Electronic City, Bengaluru, Karnataka 560100, India",12.835065,77.6937109,http://www.yashaayuayurveda.com/,4.9,234,,"skin_care_clinic, hospital, doctor, health, massage, point_of_interest, establishment",Open now,082968 34836
ChIJAy2nZFNtrjsRDsOU3sRGXPA,Sudeeksha Healthcare,"135/5, Muthanallur Rd, Gopasandra, Bengaluru, Karnataka 560099, India",12.8425749,77.7283161,,5,20,,"hospital, point_of_interest, health, establishment",Open now,063666 20121
ChIJuxc5VoNtrjsRmWG_8QGG7fs,THE OXFORD HOSPITAL MUTHANALLUR,"RPMM+3MH, Muthanallur, Bommasandra, Karnataka 560099, India",12.8326968,77.7342395,,1,6,,"hospital, point_of_interest, health, establishment",Opening hours not available,
ChIJS7_gRI9xrjsRQ8ZTthFuhaw,Begapalli PHC,"QRR3+GP3, Nalluru Agrahara Rd, Ezlil Nagar, Begepalli, Hosur, Tamil Nadu 635126, India",12.791273,77.8042901,,4.3,9,,"hospital, health, point_of_interest, establishment",Opening hours not available,
ChIJcV2ZjwlHrjsRnER5vgx6yjU,Sai Krupa Hospital,"BM Highway Kaniminike, Kanmanike, Kumbalgodu, Bengaluru, Karnataka 560074, India",12.8630696,77.4331629,https://saikrupa-hospital.web.app/,3.4,19,,"hospital, health, point_of_interest, establishment",Open now,080 6878 5032
ChIJm1IZlR9HrjsRrSzvptHZ_DY,Govt hospital hagare,"VC7M+HFF, road, Kanmanike, Halebeedu, Bengaluru, Karnataka 560074, India",12.8639265,77.4336655,,5,1,,"hospital, health, point_of_interest, establishment",Open now,
ChIJrUQ0WHxJrjsR8O_jWt84i4k,Government veterinary hospital Ganakal,"V925+G7H, Ramanagara, Karnataka 562109, India",12.8513095,77.3582205,,,0,,"hospital, health, point_of_interest, establishment",Opening hours not available,
ChIJH-R829A5rjsRz5UvfxlmpyU,ಪ್ರಾಥಮಿಕ ಆರೋಗ್ಯ ಕೇಂದ್ರ,"VCGV+FXQ, Kumbalgodu, Bengaluru, Karnataka 560074, India",12.8762098,77.4449732,,4,4,,"hospital, health, point_of_interest, establishment",Opening hours not available,
ChIJ7_ula8c5rjsRQEmGM3VasvE,DHANALAKSHMI MEDICAL,"Hosapalya Rd, opposite Pepsi gate, Kumbalgodu, Bengaluru, Karnataka 560074, India",12.8727454,77.438878,,5,26,,"hospital, health, point_of_interest, establishment",Open now,
ChIJcxztolFHrjsRKsRTs6m535U,Sri gurukrupa medical,"4 kamba k Gollahalli post Thagachaguppe kumbalgodu, Kengeri, Bengaluru, Karnataka 560074, India",12.8559372,77.4526928,,5,1,,"hospital, health, point_of_interest, establishment",Open now,086607 66695
ChIJcbrNYERHrjsRXw-lovr-s1A,BGS GIMS Urban Health Training Centre,"VF66+Q33, Bengaluru, Karnataka 560060, India",12.8618877,77.460158,,5,2,,"hospital, health, point_of_interest, establishment",Closed,
ChIJAfPCIQBHrjsR7q7uLkRBMbc,Kanasu Diagnostic Lab,"VF43+528, Kumbalgodu Gollahalli, Bengaluru, Karnataka 560060, India",12.8554143,77.4525772,,4.9,16,,"hospital, health, point_of_interest, establishment",Opening hours not available,
ChIJP_KDg0NHrjsR4LBqv8pu-Aw,S B POLY CLINIC,"01 B, G S, Circal, Bengaluru, Karnataka 560074, India",12.855668,77.4528495,,5,1,,"pharmacy, hospital, health, store, point_of_interest, establishment",Opening hours not available,081508 68694
ChIJZ8sJ_vhHrjsRcw5fzELWS3A,Jeevaka The Way Off Ayurveda,"NH275, Kanmanike, Bengaluru, Karnataka 560074, India",12.8659312,77.4363468,,,0,,"hospital, health, point_of_interest, establishment",Opening hours not available,
ChIJoZK0IFlHrjsRXrfJi2_iGx0,Medical Store,"VF83+VJ8, thagachaguppe, Kumbalgodu, Bengaluru, Karnataka 560060, India",12.8671708,77.4540709,,5,3,,"hospital, health, point_of_interest, establishment",Opening hours not available,090082 21107
ChIJMX09XQA5rjsRCUY68iO0Nj4,TRUST MED MultiSpecialty Hospital & DIAGNOSTICS,"VCGW+PJ9, Bengaluru, Karnataka 560060, India",12.8767433,77.4466814,,5,56,,"hospital, point_of_interest, health, establishment",Open now,
ChIJK9w1SqE_rjsRvBKB-23Gezw,Sai Vindhya Polyclinic Newborn and Children Chest and Allergy Care,"Survey no 24/13, Shop No 3, Canara Bank Building, 236/2, South, East phase, Kengeri Hobli, Kumbalgodu, Bengaluru, Karnataka 560074, India",12.8777026,77.4462625,,5,11,,"hospital, point_of_interest, health, establishment",Open now,081977 99696
ChIJP87vZ5g4rjsRWTSZLp3v-74,Jaya Clinic,"1st Floor, Mysore Main Road, near Sky Walk, Kumbalagodu, Bengaluru, Karnataka 560074, India",12.878769,77.4459294,,4.5,2,,"hospital, point_of_interest, health, establishment",Opening hours not available,
ChIJcdLVC845rjsRu4vYfsYtrOs,SHREE RENUKA MEDICALS AND GENERAL STORES,"#23 Gerupalya Doddaladamara road kumbalgodu post kengeri hobli, Bengaluru, Karnataka 560074, India",12.8784456,77.4463329,,5,1,,"hospital, point_of_interest, health, establishment",Open now,095358 12614
ChIJFY0_0otjLocRggMWMT77k5U,Sree Dhanvantari Day care & Diagnostic centre,"Shop No.2, Om Sri Sai Kripa Plaza, Infront of Shoba Hill View Apartment, near the Home school, Nagegowdanapalya, Uttarahalli -Manavarthekaval, Bengaluru, Karnataka 560109, India",12.8660247,77.521461,https://sreedhanvantaridaycare.my.canva.site/,4.7,14,,"skin_care_clinic, hospital, point_of_interest, health, establishment",Open now,090194 08245
ChIJP9_diBJBrjsRgRe3RHUS_vg,Pavan Ganga Clinic,"5, Kanakapura Main Rd, near keb office, sarsawthi nagar, Talaghattapura, Bengaluru, Karnataka 560062, India",12.8665164,77.5348081,,4.4,7,,"hospital, point_of_interest, health, establishment",Open now,095386 51462
ChIJd-9a2wo_rjsRIGhyFmOP9Xs,Shankar Super Specialty Hospital in Bangalore,"Pipeline Rd, Balaji Layout, Raghuvanahalli, Bangalore City Municipal Corporation Layout, Bengaluru, Vajarahalli, Karnataka 560062, India",12.8752812,77.5378976,https://www.shankarhospital.in/,4.1,925,,"hospital, health, point_of_interest, establishment",Open now,083510 81085
ChIJJx9y4Cc_rjsR_5A0cY87g2o,Zymus Hospital - Best Super Specialty Hospital in Kanakapura Road | Best Multispecialty Hospital in Bengaluru |,"No.1, K NO. 92, Nanjappa Complex, Kanakapura Main Rd, Raghuvanahalli, Bangalore City Municipal Corporation Layout, Bengaluru, Karnataka 560062, India",12.8786684,77.5450486,https://www.zymushospital.com/,4.8,1838,,"hospital, health, point_of_interest, establishment",Open now,080 2111 1001
ChIJB3xW-KJqrjsRNtbIkIUOZoA,Recoup Health Anjanapura,"312, 80 Feet Road, Further Extension of, Anjanapura 10th Block, Lal Bahadur Shastri Nagar, Bengaluru, Karnataka 560108, India",12.8554109,77.5706442,https://bit.ly/492VkAK,3.7,61,,"hospital, health, point_of_interest, establishment",Open now,08071 175 110
ChIJRzWIKqtBrjsRzDaMKvJ0eu4,"KITES I Premium Senior Care Center I Rehabilitation, Palliative & Dementia Care for Seniors, Kanakapura Road","Metro Station Thalagattapura, behind Talaghatpura, Paramount Gardens, Jyotipuram, Vajarahalli, Bengaluru, Karnataka 560062, India",12.8712971,77.5387381,http://www.kitesseniorcare.com/,4.5,10,,"hospital, doctor, health, point_of_interest, establishment",Open now,099800 67000
ChIJexMXVeZrrjsRSazGiPgBnDQ,Anjanapura Government Hospital,"#202/1, 203/1, Gollahalli Rd, Anjanapura, Bengaluru, Karnataka 560108, India",12.862223,77.5646361,,4.3,6,,"hospital, health, point_of_interest, establishment",Closed,
ChIJz3ElMBI_rjsRO_SdssXNRhU,VBJ || Bone & Joint Clinic || Shoulder & knee || Joint Replacement || Arthroscopy & Sports Medicine Bangalore,"588, 100 feet Road, Kanakapura Main Rd, Balaji Layout, Vajarahalli, Bengaluru, Karnataka 560109, India",12.8750603,77.5368783,https://www.drvijaychandar.com/,4.9,124,,"hospital, doctor, health, point_of_interest, establishment",Open now,089711 02779
ChIJzWic8hVBrjsR3Y3d4o36DaM,"Shubhaspati,Ayurveda Academy, Bengaluru","VH45+X73, Unnamed Road, Anjanapura 5th Block, Anjanapura Twp, Bengaluru, Karnataka 560108, India",12.857375,77.5581567,,5,18,,"hospital, health, point_of_interest, establishment",Opening hours not available,
ChIJHb_1TyY_rjsRqLgSH-94Uj4,"Dr.Vijay Chandar R - Consultant Arthroscopy & Joint Replacement Surgeon, Bangalore","588, 100 feet Road Vajarahalli, Kanakapura Main Rd, Balaji Layout, Bengaluru, Vajarahalli, Karnataka 560109, India",12.875111,77.5366867,http://www.drvijaychandar.com/,5,40,,"hospital, doctor, health, point_of_interest, establishment",Open now,099028 23421
ChIJT-HUnHo_rjsR0OQSOhzfeKc,Lens&Meds | Vajarahalli | Best Pharmacy | Eyewear & Sunglasses | Diagnostics & Clinic,"No14, Ground Floor, Vajarahalli, Opp Metro Pillar 234 Vajarahalli Bus Stop, Kanakapura Road, Post, Vajarahalli Village, Talaghattapura, Bengaluru, Vajarahalli, Karnataka 560062, India",12.8752499,77.5434774,,5,6,,"hospital, pharmacy, health, store, point_of_interest, establishment",Open now,097407 50718
ChIJIRErrec_rjsRaAoXVGIaidM,Shree Manjunatha Pharma,"Kanakapura Main Rd, bayanpalya bus stop, Vajarahalli Village, Bangalore City Municipal Corporation Layout, Bengaluru, Vajarahalli, Karnataka 560062, India",12.8751711,77.5433345,,5,8,,"pharmacy, hospital, health, store, point_of_interest, establishment",Open now,089711 60764
ChIJ0-17AEFBrjsR72n8_vqY5xM,"DIXIT CLINIC AND GASTRO CENTRE | Best Gastroenterologist, Endoscopy Specialist, Physician","@ Baiyyanapalya, 5, Kanakapura Main Rd, near DMart, Vajarahalli Village, Bangalore City Municipal Corporation Layout, Vajarahalli, Bengaluru, Karnataka 560062, India",12.8752535,77.543479,http://www.dixitgastro.com/,5,25,,"hospital, doctor, health, point_of_interest, establishment",Open now,063601 26262
ChIJTaKJAwJrrjsRbwxkhCpxjB8,Medax Hospitals Gottigere,"No 33/1 and 35/1,Kalena Agrahara, Bannerghatta Rd, Gottigere, Bengaluru, Kothnur, Karnataka 560076, India",12.8628435,77.5910611,https://medaxhospitals.com/,4.2,721,,"hospital, health, point_of_interest, establishment",Open now,089519 04100
ChIJxRXIbMFqrjsR6GoJZ-Mo2Nc,Vijayashree Hospitals,"No.3, Bannerghatta Rd, near Dr. RML College of Law Annex, Jyothi Nagar, Bohra Layout, Gottigere, Bengaluru, Karnataka 560083, India",12.8578458,77.589331,http://www.vijayashreehospitals.org/,3.2,368,,"hospital, health, point_of_interest, establishment",Open now,096868 25522
ChIJr-_jvqwVrjsR0ljvLXINSRY,Sankalpa Multispeciality Hospital,"47/2, Kothnur Dinne Main Rd, near BK circle, opposite to Vishal mega mart, 8th Phase, Kalena Agrahara, Bengaluru, Kothnur, Karnataka 560076, India",12.872508,77.5837024,http://sankalpa-hospitals.com/,4.7,498,,"hospital, health, point_of_interest, establishment",Open now,096060 26006
ChIJFzEbHztrrjsR1sjghl3jbyg,Deepasri Multispeciality Hospital JP Nagar,"5th Cross Rd, Pavamana Nagar, Surabhi Nagar, 8th Phase, J. P. Nagar, Kothanur, Bengaluru, Karnataka 560076, India",12.8696964,77.5821232,https://www.deepasrihospital.com/,4.4,582,,"hospital, health, point_of_interest, establishment",Open now,091108 63234
ChIJ8ywExq9qrjsRbaZArirDmfc,Skanda Ayur Care Center,"#129, Skanda, 6th Cross, 7th Block, Royal Lakefront Residency Phase 3, Behind IMG Elite, Ragavanapalya, JP Nagar 9th Phase, Royal Lakefront Residency Phase 3, JP Nagar 9th Phase, J. P. Nagar, Bengaluru, Raghavana Palya, Karnataka 560062, India",12.8665708,77.5721506,,5,1,,"hospital, health, point_of_interest, establishment",Open now,
ChIJk0HlA6JrrjsRYgARDv411gY,Aadya Eye Hospital,"Gottigere - Kengeri Rd, Sarathynagar, South Avenue, Gottigere, Bengaluru, Kothnur, Karnataka 560076, India",12.8740682,77.5723106,,4.8,100,,"hospital, health, point_of_interest, establishment",Open now,091484 65500
ChIJY8QLyeJrrjsRchHdqGwT4A4,Gottigere UPHC,"4/4, Gundappa Layout, Gottigere, Bengaluru, Karnataka 560083, India",12.857763,77.5883296,,4.1,33,,"hospital, health, point_of_interest, establishment",Closed,
ChIJOylcT_8_rjsRNt4sQS8SmE8,Ganga Multi Speciality Clinic And Orthopaedic Centre,"343, Anjanapura Main Road, M K S Layout Narayana Nagar 1st Block, Doddakallasandra, Bengaluru, Karnataka 560062, India",12.8753859,77.5592605,https://design.mbgcard.com/ganga,4.8,150,,"hospital, doctor, health, point_of_interest, establishment",Open now,097425 89828
ChIJQdF0XnprrjsRbh4V59xEVIM,RK Kidney Stone Centre,"No. 3, First Floor, Kammanhalli Link Road, Bannerghatta Rd, opp. NYDHILE RESIDENCY, Himagiri Meadows, Gottigere, Bengaluru, Karnataka 560083, India",12.8589354,77.5912309,,4.9,77,,"hospital, health, point_of_interest, establishment",Open now,099805 66479
ChIJ3Zh1UAdrrjsRPW0EMBb8hrI,Dr.Sridhar M,"37, AYUSHMAAN, AASHRAYA SCAN CENTER AND CHILDREN'S CLINIC, LAXMAN LAYOUT, Royal County, 8th Phase, J. P. Nagar, Bengaluru, Kothnur, Karnataka 560083, India",12.8685944,77.5761801,,5,11,,"hospital, doctor, health, point_of_interest, establishment",Open now,081974 90117
ChIJl_w7x7VrrjsRU17hA2EpbEg,Vaidyaratnam Ayur Rhythm Holistic Clinic and Panchakarma Therapy,"ROYAL LAKE FRONT RESIDENCY, 8, 8th Phase, J. P. Nagar, Kothnur, Karnataka 560076, India",12.8696213,77.5752635,http://ayurrhythmhospitals.com/,5,46,,"hospital, pharmacy, health, store, point_of_interest, establishment",Open now,084311 09635
ChIJv2Jfcs1qrjsRTzMHGwDuE3U,"Narayana Nethralaya, Bannerghatta, Eye Hospital","No.63, Bannerghatta Rd, next to Royal Meenakshi Mall, Hulimavu, Bengaluru, Karnataka 560076, India",12.8745853,77.5950082,http://www.narayananethralaya.org/,4.9,24235,,"hospital, doctor, health, point_of_interest, establishment",Closed,080661 21618
ChIJ1XqaYHlrrjsRvtjXa1RJIWE,Noble Multispeciality Hospitals,"87, Noble residency road, Doddakamanahalli, Central Excise Layout, Hulimavu, Bengaluru, Doddakammanahalli, Karnataka 560076, India",12.8615885,77.6017559,https://www.noblemultispecialityhospital.com/,4.6,555,,"hospital, health, point_of_interest, establishment",Open now,063660 65092
ChIJu2AX1i1rrjsRDBFXykqtu68,Bozo Wags Veterinary Hospital & Pet Services,"No. 16/1, Akshaya Complex, 5th Cross, Main Road, Yelenahalli, Akshayanagar, Bengaluru, Karnataka 560068, India",12.8702615,77.616431,http://www.bozowags.com/,4.5,730,,"pet_store, hospital, veterinary_care, health, store, point_of_interest, establishment",Open now,097405 08008
ChIJn3_a8G9rrjsRNSvLQ-RRnrM,Akshaya Hospital,"16, 5 th Cross, Yelenahalli Main Rd, Akshayanagara East, Akshayanagar, Bengaluru, Karnataka 560076, India",12.8703489,77.6165431,http://www.akshayahospitalss.com/,4.3,186,,"hospital, health, point_of_interest, establishment",Open now,078999 60360
ChIJmc8S5iBrrjsRdaIdTBlUcis,Manipal Clinics Begur,"Radiant sine, 53/3, Yelenahalli Main Rd, near prestige song of the south, Akshaya Vana, Akshayanagar, Bengaluru, Karnataka 560068, India",12.8624562,77.6145983,https://www.manipalhospitals.com/clinics-begur/,4.7,282,,"hospital, health, point_of_interest, establishment",Open now,1800 102 4647
ChIJXbCAfnRrrjsRAdHThxa4e-U,Lakshya Hospital,"Prestige Song of South NIRDESH COMMERCIAL COMPLEX Begur - Koppa Rd, near to SNN Raj Serenity, Yelenahalli, Akshayanagar, Bengaluru, Karnataka 560068, India",12.8671469,77.620452,,4.9,346,,"hospital, health, point_of_interest, establishment",Open now,080505 31234
ChIJWwHZhswUrjsRHdBOWsEXfUg,S L V HOSPITAL - HOSPITAL IN YALENAHALLI,"Opp Prestige Song of the South, Yelenahalli Begur koppa road, 1370/1, Begur Rd, Suraksha nagar, Yelenahalli, Begur, Bengaluru, Karnataka 560068, India",12.8618421,77.6142837,,4,45,,"hospital, pharmacy, consultant, health, store, point_of_interest, establishment",Open now,063620 59099
ChIJMUQvqrdrrjsRlIru3hVmB2E,Sunshine Healthcare Clinic,"89, 14/2 & 14/3 , 1st Floor , Above HDFC bank , Akshay Nagar main road, Yelenahalli, Akshayanagar, Bengaluru, Karnataka 560086, India",12.871242,77.6166357,https://www.eka.care/doctor/dr-ramya-k-s-gynecologist-bengaluru?utm_source=gmb&utm_medium=website&utm_campaign=032023,4.9,109,,"hospital, health, point_of_interest, establishment",Open now,097402 82014
ChIJ34zeP_cVrjsRWpcYh5dA4hg,Ekana Multi Specialty Hospitals,"110, Begur Rd, Akshaya Residency, Begur, Bengaluru, Karnataka 560068, India",12.8703222,77.6239211,http://www.ekanahospital.com/,4.6,468,,"hospital, health, point_of_interest, establishment",Open now,088844 48325
ChIJKa-c6ZkVrjsR3bJ7q3Gsl-4,Sri Sairam Hospital - Hulimavu,"13/5/1 Hulimavu main road, Bannerghatta Main Rd, Raghavendra Layout, Krishna Layout, Hulimavu, Bengaluru, Karnataka 560076, India",12.8792534,77.6085169,https://srisairamhospitals.com/,4.5,552,,"hospital, health, point_of_interest, establishment",Open now,081975 38787
ChIJv3DRtQRrrjsREWiKVNucX3g,Govt Hospital Begur,"VJHG+768, 16, Begur Rd, Classic Paradise Layout, Begur, Bengaluru, Karnataka 560068, India",12.8781506,77.6249042,,3,11,,"hospital, health, point_of_interest, establishment",Opening hours not available,
ChIJfzd4XJlsrjsRYraMOMEyWCE,Kauvery Hospital Electronic City in Bengaluru,"no 92, 1 B, Hewlett Packard Avenue, Konappana Agrahara, Electronic City, Bengaluru, Karnataka 560100, India",12.8545711,77.6626824,https://www.kauveryhospitalsbangalore.com/hospitals/kauvery-hospital-electronic-city,4.7,20978,,"hospital, doctor, health, point_of_interest, establishment",Open now,080 6801 6801
ChIJ6UbxvvltrjsRLRzCDZpJ-rM,PES University Institute of Medical Sciences and Research,"VM78+55Q, Konappana Agrahara, Electronic City, Bengaluru, Doddanagamangala Village, Karnataka 560100, India",12.86282,77.6660996,,3.4,222,,"hospital, health, point_of_interest, establishment",Closed,
ChIJDf4tUqhsrjsRikP8DHYTeJU,Pralaksha Hospital,"#40, New Mico Road Hosa Road Market, Hosa Rd, Chennakeshava Nagar, CK Nagar, Sai Sree Layout, Parappana Agrahara, Bengaluru, Karnataka 560068, India",12.8708567,77.6559772,http://www.pralakshahospital.com/,3.5,264,,"hospital, health, point_of_interest, establishment",Open now,099020 30314
ChIJB_uX_5ZsrjsRfl5bOVukTkg,Anugrahaa hospital,"G.S.PALYA ROAD, Hosur Rd, Konappana Agrahara, Electronic City, Bengaluru, Karnataka 560100, India",12.8549128,77.6682652,https://www.anugrahaahospital.com/,3.6,170,,"hospital, health, point_of_interest, establishment",Open now,095358 61001
ChIJM-cMNFZrrjsR5oJnbjd9xIs,Singasandra Govt Hospital,"VMC2+WQ5, AECS Layout - A Block, Singasandra, Bengaluru, Karnataka 560068, India",12.8722666,77.65199,,2.6,119,,"hospital, health, point_of_interest, establishment",Closed,
ChIJrzJGibRsrjsRBUTKina6pU4,Medwell Multi-specialty Hospital And Diagnosis Centre,"Hosa Rd, Balaji Layout, Sai Sree Layout, Choodasandra, Bengaluru, Karnataka 560068, India",12.8778157,77.6719099,https://medwellhospitals.com/,4.5,769,,"hospital, health, point_of_interest, establishment",Open now,091085 64264
ChIJESz-fpdsrjsRXvjiMa8ZTZM,SHAKTHI DENTAL CLINIC,"1ST FLOOR, LAVAKUSHA BUILDING, BUS STAND, Hosur Rd, behind KONNAPANA AGRAHARA, beside SRI KRISHNA GRAND HOTEL, Konappana Agrahara, Electronic City, Bengaluru, Karnataka 560100, India",12.8547852,77.6648855,http://shakthidentalclinic.co.in/,4.9,2287,,"dental_clinic, dentist, hospital, health, point_of_interest, establishment",Closed,091108 53536
